Address Key,Address Line 1,Address Line 2,City,Country,Alpha 2,ZIP Code,Latitude,Longitude
1,64924 Sunfield Road,,Turangi,New Zealand,NZ,3382,-38.9898711,175.8087485
2,30812 Holy Cross Pass,,Kasamwa,Tanzania,TZ,,-2.8385304,32.4212424
3,0 Eggendart Road,,Głubczyce,Poland,PL,48-100,50.20027,17.8287
4,156 Carioca Way,,Ghanzi,Botswana,BW,,-21.6960991,21.6481861
5,62 Memorial Parkway,,Ndano,Indonesia,ID,,-8.4942298,118.5360226
6,94832 Mayer Junction,,København,Denmark,DK,1360,55.6854725,12.5666087
7,36350 Lake View Road,,Zhendeqiao,China,CN,,29.139697,111.827018
8,4 Prentice Parkway,,Wangchang,China,CN,,40.401045,117.998902
9,75141 Mitchell Alley,,Callao,Peru,PE,,-12.0508491,-77.1259843
10,71177 Maple Wood Drive,,Viejo Daan Banua,Philippines,PH,6119,10.90354,123.0597
11,470 Dayton Way,,Aihua,China,CN,,39.8909584,116.325077
12,9 Ludington Junction,,Donglai,China,CN,,41.654661,126.154678
13,05 Melody Junction,,Jacinto Arauz,Argentina,AR,8208,-37.7758475,-67.7134201
14,67 Westerfield Road,,s-Hertogenbosch,Netherlands,NL,5224,51.6991519,5.2583334
15,9 Macpherson Road,,Hisings Kärra,Sweden,SE,425 33,57.8001246,11.9841764
16,16 Southridge Circle,,Míthymna,Greece,GR,,39.367146,26.1751462
17,874 Badeau Alley,,Āq Qāyeh,Iran,IR,,37.268428,55.1487513
18,9 Calypso Terrace,,Dongyuan,China,CN,,23.788392,114.74638
19,558 Gale Parkway,,Daxi,China,CN,,24.1092009,117.1199596
20,54 Shoshone Hill,,Jintian,China,CN,,23.588928,110.08531
21,192 Kropf Crossing,,Tønsberg,Norway,NO,3114,59.3120256,10.4562219
22,8317 Sloan Crossing,,Argungu,Nigeria,NG,,12.7494718,4.5366582
23,72 Cherokee Center,,San Jose,Mexico,MX,26017,18.8962696,-96.9417785
24,7723 Hayes Junction,,Ifanadiana,Madagascar,MG,,-21.3032134,47.6381357
25,39562 Twin Pines Alley,,Manta,Ecuador,EC,,-0.9676533,-80.7089101
26,9593 Village Green Pass,,Banisilan,Philippines,PH,9416,7.5294,124.694803
27,0164 Eagle Crest Park,,Valdemarsvik,Sweden,SE,615 95,58.2024514,16.6013625
28,485 Del Sol Point,,Karangsono,Indonesia,ID,,-8.2373951,113.5103504
29,86549 Mendota Way,,Šentjur,Slovenia,SI,3230,46.218184,15.38742
30,3686 Daystar Road,,Ribeiro,Portugal,PT,3465-132,40.5660046,-8.1351741
31,636 Atwood Plaza,,Lesnyye Polyany,Russia,RU,612730,51.247228,58.498546
32,37871 West Place,,Hamilton,New Zealand,NZ,3244,-37.786693,175.282269
33,941 Northland Place,,Ameixoeira,Portugal,PT,2425-702,39.8352158,-8.8446771
34,9 Garrison Park,,Phoenix,United States,US,85067,33.492776,-112.0837471
35,087 Heath Park,,Poroshkovo,Ukraine,UA,,48.6688151,22.7524961
36,07357 Debra Crossing,,Umbuldamar,Indonesia,ID,,-8.1854774,112.3531494
37,5230 Dakota Lane,,Bulualto,Philippines,PH,2307,12.6679167,123.9881642
38,83627 Utah Pass,,Alabug,Philippines,PH,4507,17.6992092,121.5038757
39,13785 Mallard Pass,,Kamyanyets,Belarus,BY,,52.3979454,23.8257811
40,18498 Barnett Terrace,,Stepove,Ukraine,UA,,47.1899563,31.5156018
41,378 Sunbrook Court,,Xiashan,China,CN,,21.192457,110.397656
42,4 Rieder Hill,,Nkandla,South Africa,ZA,3859,-28.5860306,30.8843434
43,6680 Eagan Road,,Yecun,China,CN,,38.487193,106.230908
44,39 Magdeline Junction,,Leuweheq,Indonesia,ID,,-8.2284,123.7414
45,8 Bashford Street,,Tsurugi-asahimachi,Japan,JP,929-0203,36.4474231,136.6332141
46,591 Lighthouse Bay Drive,,Chynadiyovo,Ukraine,UA,,48.4907371,22.8097434
47,86 Nevada Avenue,,Gandra,Portugal,PT,4940-025,41.8815942,-8.628833
48,0349 Loeprich Alley,,Trondheim,Norway,NO,7425,63.4400274,10.4024274
49,8 Banding Terrace,,Capacho Nuevo,Venezuela,VE,,7.8286837,-72.3022522
50,4939 Meadow Ridge Center,,Descalvado,Brazil,BR,13690-000,-21.8898802,-47.6455169
51,61 Dakota Way,,Kamionka Strumitowa,Ukraine,UA,,50.0994726,24.3454482
52,75 Transport Plaza,,Puerto Plata,Dominican Republic,DO,10502,19.7553444,-70.8233213
53,78093 Gateway Terrace,,Ábrego,Colombia,CO,546079,8.0762129,-73.222102
54,779 Novick Parkway,,Sarongan,Indonesia,ID,,-8.516612,113.8822686
55,86 Cascade Parkway,,Paris La Défense,France,FR,92901 CEDEX,48.892701,2.233089
56,75 Spohn Place,,Ruyigi,Burundi,BI,,-3.446207,30.2512728
57,0 Lake View Street,,Tournon-sur-Rhône,France,FR,07304 CEDEX,45.052484,4.8398662
58,7 Spohn Avenue,,Växjö,Sweden,SE,351 88,56.6444907,14.224297
59,9 Golf View Terrace,,Siemianowice Śląskie,Poland,PL,41-106,50.3257904,19.0018119
60,64 Bashford Center,,Basīrpur,Pakistan,PK,45750,30.663128,73.6658984
61,714 Onsgard Hill,,Västerås,Sweden,SE,724 73,59.6013651,16.4793546
62,84062 Lake View Street,,Nereta,Latvia,LV,,56.198791,25.3251951
63,3 Superior Park,,Ambon,Indonesia,ID,,-3.6553932,128.1907723
64,81872 Ramsey Parkway,,Zhongxian,China,CN,,30.299559,108.039002
65,57 Knutson Pass,,Jablah,Syria,SY,,35.368795,35.9206549
66,24128 Lerdahl Street,,Etinan,Nigeria,NG,,4.842716,7.8558357
67,30217 Ramsey Junction,,Mendeleyevo,Russia,RU,617200,56.0388248,37.2339179
68,54125 Arkansas Hill,,Sŭedinenie,Bulgaria,BG,4194,42.26667,24.55
69,03294 Ramsey Place,,Pedamaran,Indonesia,ID,,-3.4206623,104.9856176
70,23 Lotheville Park,,Segezha,Russia,RU,186424,63.7388395,34.3097519
71,1249 Village Green Trail,,Berģi,Latvia,LV,,56.9934009,24.3022789
72,7220 Sherman Crossing,,Dongkeng,China,CN,,22.995838,113.933872
73,18 East Center,,Bagombong,Philippines,PH,5105,14.7793575,121.0489884
74,3128 Raven Terrace,,Douz,Tunisia,TN,,33.4614354,9.0294708
75,72375 Sutherland Lane,,Al Qanāyāt,Egypt,EG,,30.6183919,31.4620967
76,3 School Trail,,Baltimore,United States,US,21290,39.2937264,-76.6248739
77,70 Moland Road,,Pueblo Nuevo,Colombia,CO,233009,8.4009121,-75.2712393
78,7 Anhalt Terrace,,Maqiu,China,CN,,22.198745,113.543873
79,84559 Scott Parkway,,Dacheng,China,CN,,38.705449,116.653793
80,53727 Crowley Lane,,Xincheng Chengguanzhen,China,CN,,24.066095,108.664778
81,8 Superior Park,,Bayt Sāḩūr,Palestinian Territory,PS,,31.697836,35.22853
82,85995 Caliangt Place,,Aş Şaff,Egypt,EG,,29.6516537,31.3159513
83,4 Commercial Parkway,,Hezheng Chengguanzhen,China,CN,,35.422892,103.352654
84,650 Goodland Place,,Wangong,China,CN,,39.882122,116.2637946
85,9339 Sauthoff Hill,,Xunzhai,China,CN,,28.34343,120.489051
86,01555 Miller Street,,Lajinha,Brazil,BR,36980-000,-20.1217728,-41.5612423
87,8 Fulton Terrace,,Šentrupert,Slovenia,SI,8232,45.9769612,15.0909889
88,3035 Pearson Street,,Anseong,South Korea,KR,,37.0079695,127.2796786
89,71229 Thompson Junction,,Concordia,Peru,PE,,-4.579855,-74.750168
90,00 Esker Way,,Fyllingsdalen,Norway,NO,5145,60.3573369,5.2731644
91,0 Artisan Place,,El Agua Dulcita,Honduras,HN,,14.6901945,-87.7480377
92,5323 Eagan Junction,,Maevatanana,Madagascar,MG,,-16.9483408,46.8325494
93,18442 Del Mar Hill,,Jiaoxiyakou,China,CN,,26.12829,102.45004
94,485 Rutledge Pass,,Lac-Brome,Canada,CA,L9G,45.21678,-72.51581
95,8 Lukken Center,,Nasilava,Belarus,BY,,54.3082668,26.7832545
96,40971 Huxley Drive,,Trá Mhór,Ireland,IE,R93,53.2736466,-9.0197835
97,8 Bunting Hill,,Taphan Hin,Thailand,TH,66110,16.2093368,100.3722477
98,3505 Almo Terrace,,Koton Karifi,Nigeria,NG,,8.1,6.8
99,2 4th Trail,,Banqiao,China,CN,,35.4937018,110.3838909
100,21382 Sheridan Street,,Antrukan,Indonesia,ID,,-8.0433348,113.0762954
101,031 Pond Street,,Tchoban Bey,Syria,SY,,36.61667,37.45
102,6547 Autumn Leaf Place,,Yisuhe,China,CN,,27.77268,112.955638
103,8563 Rockefeller Pass,,Puerres,Colombia,CO,523548,0.8275786,-77.2635038
104,12 Alpine Point,,Aachen,Germany,DE,52080,50.7925769,6.1597163
105,9 Riverside Pass,,Pangkalan,Indonesia,ID,,-2.688962,111.622398
106,0120 Mcguire Circle,,Ryazanskiy,Russia,RU,671834,55.7165288,37.784921
107,058 Macpherson Court,,Thaton,Myanmar,MM,,16.9270749,97.3678624
108,41 Schiller Road,,Roissy Charles-de-Gaulle,France,FR,95959 CEDEX 2,49.0096906,2.5479245
109,8 Randy Place,,Pavlovka,Russia,RU,433710,55.4083313,56.5492424
110,221 Portage Alley,,Wangjiachang,China,CN,,39.142026,117.212606
111,336 Thompson Parkway,,Hacienda La Calera,Chile,CL,,-32.78333,-71.21667
112,7 Carioca Pass,,Gvozd,Croatia,HR,44410,45.3532302,15.8650719
113,9 Clemons Lane,,Pidigan,Philippines,PH,2806,9.9886653,122.8148975
114,69 Talmadge Center,,Matungao,Philippines,PH,9203,14.8043413,120.8805975
115,16836 American Ash Way,,Hayes,Jamaica,JM,,17.8735534,-77.2290193
116,43 Saint Paul Hill,,Jimsar,China,CN,,44.000497,89.180437
117,89 Dorton Alley,,Cagliari,Italy,IT,9124,39.2186229,9.113797
118,2 Maple Wood Parkway,,Solotcha,Russia,RU,391133,54.789029,39.833505
119,7861 Moose Place,,Yelizavetinskaya,Russia,RU,385123,45.0463269,38.8000344
120,887 Norway Maple Way,,Tanjungbatu,Indonesia,ID,,0.663325,103.4569571
121,1 Westend Park,,Kapasan,Indonesia,ID,,-7.2425008,112.7524553
122,2988 Mesta Crossing,,Oslo,Norway,NO,806,59.9486019,10.7309257
123,36876 Coolidge Parkway,,Gävle,Sweden,SE,801 06,60.6815788,17.1350993
124,961 Lillian Plaza,,San Jorge,Argentina,AR,5117,-34.6098701,-58.5668231
125,755 Jana Road,,Tokarnia,Poland,PL,32-436,49.7392784,19.8619324
126,3406 Stone Corner Crossing,,Villa Ojo de Agua,Argentina,AR,5250,-29.4933611,-63.6964035
127,62 Autumn Leaf Junction,,Washington,United States,US,20220,38.8987281,-77.0336768
128,59535 Hudson Park,,Liqiao,China,CN,,31.215291,118.931012
129,0830 Schlimgen Park,,Tamano,Japan,JP,976-0154,37.7688197,140.7154397
130,89147 Caliangt Court,,San Carlos de Bariloche,Argentina,AR,8400,-41.172184,-71.437354
131,3 Mockingbird Center,,Sumber,Indonesia,ID,,-7.9454654,113.0845936
132,0488 Mallory Way,,Sobienie Jeziory,Poland,PL,08-443,51.9328106,21.3032807
133,337 Goodland Crossing,,Áyios Nikólaos,Greece,GR,,35.1899597,25.7164166
134,37564 Burning Wood Drive,,Sundre,Canada,CA,L9H,51.8001,-114.63532
135,06 Mcbride Avenue,,Sīrīs,Palestinian Territory,PS,,32.328224,35.292369
136,08237 Lakeland Plaza,,Ibicaraí,Brazil,BR,45745-000,-14.8483688,-39.5485087
137,01 Arrowood Center,,Fredericton,Canada,CA,E3G,46.0765073,-66.7299108
138,0740 Lakewood Gardens Junction,,Cabrela,Portugal,PT,7050-405,38.5994652,-8.4602494
139,025 Jenifer Place,,Loppi,Finland,FI,12701,60.7207077,24.4417258
140,718 Kinsman Park,,Kolomak,Ukraine,UA,,49.8408677,35.3145782
141,93 Morrow Junction,,Stockholm,Sweden,SE,118 92,47.02018,-68.1434996
142,6 Eastwood Way,,Laojieji,China,CN,,44.977078,127.973162
143,65497 La Follette Park,,Cruz das Almas,Brazil,BR,44380-000,-12.6735557,-39.1016848
144,53 Wayridge Road,,Khadīr,Afghanistan,AF,,33.8629813,65.7609502
145,6 Village Lane,,Cabatang,Philippines,PH,5508,9.9213559,124.4318122
146,87 Corry Court,,Aoqian,China,CN,,25.462752,119.849709
147,3769 Namekagon Hill,,Santa Helena de Goiás,Brazil,BR,75920-000,-17.8119748,-50.5981252
148,9 Schlimgen Way,,Jinhua,China,CN,,29.079175,119.64742
149,478 Erie Road,,Novaya Lyalya,Russia,RU,624400,59.0490896,60.5974703
150,16154 Aberg Pass,,Aqqan,China,CN,,37.3,85.5
151,12532 New Castle Crossing,,Yongjiahe,China,CN,,32.203257,106.339791
152,4252 Waubesa Crossing,,Wujian,China,CN,,31.138677,120.645158
153,0864 Washington Crossing,,Bīr Nabālā,Palestinian Territory,PS,,31.851182,35.200835
154,13 Scoville Pass,,Moroni,Comoros,KM,,-11.7172157,43.2473146
155,93419 American Ash Road,,Lubaczów,Poland,PL,37-600,50.15621,23.12379
156,2829 Waubesa Hill,,Shangmachang,China,CN,,50.367353,127.3305
157,45423 Redwing Drive,,Guia,Portugal,PT,8200-434,37.1264754,-8.2996637
158,7 Swallow Parkway,,Bałtów,Poland,PL,27-423,51.0177556,21.5418795
159,42 Vidon Lane,,Leppävirta,Finland,FI,79101,62.5013857,27.7904218
160,3 7th Terrace,,Phra Khanong,Thailand,TH,10260,13.6910654,100.614025
161,4 Anhalt Place,,Hayang,South Korea,KR,,35.9132087,128.8189471
162,024 Burrows Pass,,Boconó,Venezuela,VE,,9.2534438,-70.2497616
163,607 Algoma Circle,,Manyana,Botswana,BW,,-24.7711226,25.5897031
164,75 Randy Parkway,,Atlanta,United States,US,30358,33.9216582,-84.3772367
165,31 Forster Point,,Cicheng,China,CN,,29.978387,121.449972
166,56 Starling Point,,Cernache do Bonjardim,Portugal,PT,6100-253,39.8163431,-8.1873224
167,206 Hudson Circle,,Yuntan,China,CN,,31.88344,107.426375
168,81193 Nancy Terrace,,Šenkovec,Croatia,HR,40000,46.4054155,16.4201451
169,540 Sunnyside Lane,,Liuzu,China,CN,,24.326292,109.428608
170,744 Mifflin Terrace,,‘Abasān al Kabīrah,Palestinian Territory,PS,,31.31913,34.34005
171,487 Schmedeman Center,,Fengtai,China,CN,,39.858427,116.287149
172,2 Northfield Court,,Ughelli,Nigeria,NG,,5.5001866,5.9938339
173,706 Schmedeman Terrace,,Chenzui,China,CN,,25.770509,113.014717
174,5387 Delladonna Junction,,Paris 10,France,FR,75485 CEDEX 10,43.4945737,5.8978018
175,412 Hayes Hill,,Ribeiro,Portugal,PT,4950-719,42.0291575,-8.3299947
176,36431 Emmet Drive,,Potrerillos,Honduras,HN,,15.2307976,-87.9653335
177,32708 Sycamore Circle,,Valdivia,Chile,CL,,-39.8173788,-73.2425333
178,1 Brentwood Point,,Jeju-si,South Korea,KR,,33.4996213,126.5311884
179,407 Acker Crossing,,Fada,Chad,TD,,17.193029,21.58589
180,485 Corben Circle,,Xinxu,China,CN,,22.863502,114.333767
181,39 Carey Park,,Molchanovo,Russia,RU,636330,57.586388,83.771275
182,4004 Holy Cross Drive,,Pasirmalang,Indonesia,ID,,-7.0058265,107.6306684
183,37932 Bluejay Crossing,,Kaligutan,Philippines,PH,3320,7.7688818,125.8239543
184,509 Columbus Plaza,,Sabang,Philippines,PH,8702,14.347522,120.9245309
185,2 Schiller Terrace,,Jarigue,Philippines,PH,9407,11.86538,121.44041
186,95045 2nd Hill,,San Marcos,Peru,PE,,-12.0560257,-77.0844226
187,1487 Northview Street,,Al Bilād,Yemen,YE,,14.42099,47.195011
188,2270 Bobwhite Road,,Baykonyr,Kazakhstan,KZ,,45.6232258,63.3139829
189,5 Nobel Trail,,Kushnarënkovo,Russia,RU,452230,55.1065781,55.3377071
190,78965 Independence Point,,Ribeira,Portugal,PT,4690-480,41.0716946,-8.0890423
191,4849 Farragut Point,,Kalinovo,Russia,RU,624127,57.131667,60.146389
192,949 Holmberg Hill,,Houzhai,China,CN,,31.437058,119.975172
193,21538 Barby Plaza,,Kota Kinabalu,Malaysia,MY,88592,5.952775,116.05657
194,936 Ridgeview Parkway,,Longshan,China,CN,,42.901533,125.136451
195,3 Ridge Oak Court,,Riangkroko,Indonesia,ID,,-8.1544,122.789
196,3137 Sullivan Crossing,,Bogolyubovo,Russia,RU,601270,56.1952581,40.5343698
197,17453 Lillian Way,,Na Chaluai,Thailand,TH,34280,14.5520342,105.1960795
198,97 Pearson Lane,,Várzea,Portugal,PT,3660-694,40.7477848,-8.0752858
199,89 Arrowood Drive,,Rossosh’,Russia,RU,624282,50.1987725,39.5632497
200,36754 Waubesa Alley,,Baiyin,China,CN,,36.545015,104.138586
201,6483 Toban Pass,,Shepetivka,Ukraine,UA,,50.1757487,27.0559924
202,4 Fairview Hill,,Umeå,Sweden,SE,903 22,63.8310311,20.2434458
203,1740 Rutledge Way,,Santa Monica,Philippines,PH,8422,10.0342937,126.0415372
204,3732 Union Hill,,"Palmas De Gran Canaria, Las",Spain,ES,35010,28.1328796,-15.4393074
205,159 West Court,,Zboriv,Ukraine,UA,,49.660696,25.1434666
206,06 Golf Course Terrace,,Sovetskaya Gavan’,Russia,RU,682803,48.9755228,140.2653547
207,22 Lerdahl Parkway,,Franca,Brazil,BR,14400-000,-20.5393288,-47.4013437
208,4871 West Road,,Okiot,Philippines,PH,1152,9.59503,123.1529209
209,1002 Helena Trail,,Willowmore,South Africa,ZA,6454,-33.29717,23.50527
210,8 Orin Junction,,Gangjia,China,CN,,42.016401,121.668489
211,753 Emmet Circle,,Nong Hi,Thailand,TH,45140,15.5885562,103.98402
212,491 Annamark Parkway,,Pantanal,Brazil,BR,88000-000,-27.6146187,-48.5162223
213,6201 Eagle Crest Way,,Socos,Peru,PE,,-13.308333,-73.583333
214,91 Parkside Pass,,Hrochův Týnec,Czech Republic,CZ,538 62,49.9594627,15.9105476
215,5727 Graedel Crossing,,Tit Mellil,Morocco,MA,,33.5507563,-7.4841222
216,9 Manitowish Drive,,Port-Gentil,Gabon,GA,,-0.7351026,8.7591311
217,80 Westerfield Drive,,Cobre,Portugal,PT,2750-109,38.7121599,-9.4356652
218,83 Artisan Pass,,Tianzhu,China,CN,,26.909678,109.207757
219,6414 Dryden Lane,,Balzar,Ecuador,EC,,-1.3664276,-79.8996789
220,1 Cascade Crossing,,Feijó,Brazil,BR,69960-000,-8.1754307,-70.3432459
221,8599 Raven Park,,Edsbyn,Sweden,SE,828 94,61.3611476,15.9055746
222,47845 Eagle Crest Crossing,,Okinawa Número Uno,Bolivia,BO,,-17.2333329,-62.816667
223,01 Ryan Pass,,Perpignan,France,FR,66921 CEDEX,43.6943099,2.0376775
224,72 Mosinee Hill,,Parakanbeusi,Indonesia,ID,,-6.6022253,106.199266
225,43 Warbler Pass,,Birigui,Brazil,BR,16200-000,-21.2922593,-50.3407923
226,07 School Plaza,,Ancenis,France,FR,44159 CEDEX,47.407461,-1.18752
227,880 Sommers Center,,Tomiya,Japan,JP,981-3311,38.3934967,140.8864742
228,936 Kings Road,,Mégara,Greece,GR,,37.9943201,23.3430496
229,85 Hoffman Trail,,Gotemba,Japan,JP,412-0048,35.2868468,138.8850313
230,525 Morning Hill,,Huangzhuang,China,CN,,39.975999,116.317558
231,08 Randy Court,,Fangfan,China,CN,,33.029633,-96.682893
232,278 Ryan Plaza,,Mikhaylovsk,Russia,RU,623082,56.4399654,59.1220846
233,54 Glendale Trail,,Azteca,Mexico,MX,93270,25.6845646,-100.2417875
234,63 Express Avenue,,Sungai Nyamuk,Indonesia,ID,,4.1175121,117.8663075
235,28688 Truax Hill,,Tonekābon,Iran,IR,,36.8154975,50.8716494
236,3229 Banding Alley,,Lugait,Philippines,PH,9025,8.3345712,124.2510844
237,1 Carpenter Center,,Maicao,Colombia,CO,442009,11.3451287,-72.3628361
238,40 Green Hill,,Fengshan,Taiwan,TW,,22.6113591,120.3493158
239,59209 Arkansas Pass,,Shāhpur,Pakistan,PK,47261,32.2951394,75.2071469
240,23675 Garrison Street,,Starokucherganovka,Russia,RU,416471,46.2824183,48.0477271
241,996 Vidon Lane,,Nazran’,Russia,RU,386150,43.2038704,44.8434843
242,4 Merrick Hill,,Kadusimbar,Indonesia,ID,,-6.4222,106.0889
243,1226 Rutledge Hill,,Ylämaa,Finland,FI,54410,60.7990211,28.0089189
244,57 Thierer Crossing,,Oemofa,Indonesia,ID,,-10.0828864,124.1253751
245,739 Michigan Court,,Telpaneca,Nicaragua,NI,,13.5292779,-86.2856819
246,7 Michigan Trail,,Comendador,Dominican Republic,DO,11205,18.4500491,-70.0007511
247,8 Eastwood Point,,Olympia,United States,US,98516,47.1139164,-122.7708828
248,0123 Aberg Junction,,Shiziling,China,CN,,18.9133079,72.8228652
249,1633 Jana Hill,,Bang Krathum,Thailand,TH,65110,16.5909145,100.2992789
250,19 Lunder Park,,Turinsk,Russia,RU,623900,58.041296,63.6850141
251,97688 Twin Pines Pass,,Sotnikovskoye,Russia,RU,356403,45.0030925,43.7825227
252,0 8th Alley,,Vrbas,Serbia,RS,,45.5701534,19.6449683
253,2316 Summit Lane,,Akure,Nigeria,NG,,7.2571325,5.2057909
254,14227 Mariners Cove Center,,Huangjindong,China,CN,,29.948677,109.088095
255,15440 Elka Drive,,Tangxi,China,CN,,23.759956,116.157387
256,0605 Lakeland Terrace,,Heishan,China,CN,,41.666028,122.1234429
257,50 4th Trail,,Dolní Sloupnice,Czech Republic,CZ,565 53,49.9257105,16.2979279
258,28 Morning Terrace,,Cabinda,Angola,AO,,-5.5775197,12.1927103
259,300 School Pass,,Pryyutivka,Ukraine,UA,,48.7203863,33.0679837
260,13077 Memorial Crossing,,Gadžin Han,Serbia,RS,,43.2270564,22.0309456
261,5078 Thierer Lane,,Margaharja,Indonesia,ID,,-7.2526036,108.4543113
262,198 Straubel Point,,San Juan,Philippines,PH,6227,14.565668,121.0317737
263,2659 Superior Street,,Rancapanjang,Indonesia,ID,,-7.0180991,107.7632453
264,221 Lerdahl Center,,Dukou,China,CN,,28.960671,111.889793
265,2011 Pawling Crossing,,Bcharré,Lebanon,LB,,34.2506515,36.0117322
266,4402 Northview Pass,,Dzuunmod,Mongolia,MN,,47.7008606,106.9577199
267,0600 Dennis Crossing,,Shangma,China,CN,,28.782431,113.122376
268,36359 Carberry Avenue,,Senangkhanikhom,Thailand,TH,10290,16.0445969,104.669996
269,80465 Caliangt Road,,Sere,Indonesia,ID,,-6.1834101,106.8245155
270,8847 Kings Park,,Livingstone,Zambia,ZM,,-17.8519791,25.8285153
271,872 Bluejay Parkway,,Almaznyy,Russia,RU,678181,62.4468151,114.3182712
272,2561 Lindbergh Point,,Shitan,China,CN,,27.754532,112.723615
273,573 Crescent Oaks Park,,Suidong,China,CN,,23.082498,113.518911
274,82 Waywood Hill,,Jiangcun,China,CN,,22.579117,113.081508
275,44 Packers Crossing,,Zicheng,China,CN,,30.760008,120.753163
276,3299 Valley Edge Center,,Gali,Georgia,GE,,42.6259555,41.734917
277,84627 Emmet Point,,Shache,China,CN,,38.414217,77.245761
278,029 4th Way,,Jandayan,Philippines,PH,3313,10.1298018,124.1754456
279,461 Orin Park,,Bolboc,Philippines,PH,1128,13.7825775,121.0492638
280,040 Sherman Drive,,Rostock,Germany,DE,18147,54.1463269,12.1186173
281,19 Mifflin Parkway,,Palca,Peru,PE,,-11.3442564,-75.5655147
282,3 Lake View Place,,Stupino,Russia,RU,142806,54.8843032,38.1642604
283,2373 Coolidge Pass,,Cikaduen,Indonesia,ID,,-6.3947391,106.0081819
284,9 Almo Court,,Zhigong,China,CN,,29.33903,104.778442
285,58790 Everett Avenue,,Limoeiro,Brazil,BR,55700-000,-7.8794782,-35.4551534
286,02398 Burrows Parkway,,Chengfeng,China,CN,,25.867277,118.963532
287,96 Basil Drive,,Al Qurḩ,Yemen,YE,,16.73333,51.48333
288,2174 Caliangt Terrace,,Bebedahan,Indonesia,ID,,-7.2527403,107.8774664
289,248 Meadow Vale Center,,Columbus,United States,US,31998,32.46,-84.99
290,79 Fairfield Circle,,Kedungwungu,Indonesia,ID,,-6.5096059,108.4543113
291,7002 Artisan Pass,,Providencia,Peru,PE,,-5.7,-75.983333
292,52 Oak Valley Plaza,,Balai,Indonesia,ID,,0.995919,103.4295033
293,3 Orin Hill,,Buenos Aires,Honduras,HN,,-34.5890239,-58.4297385
294,53 Florence Park,,Jerada,Morocco,MA,,34.3061791,-2.1794136
295,77087 Carioca Plaza,,Montpellier,France,FR,34064 CEDEX 2,43.862902,3.319109
296,24246 Hanover Plaza,,Libas,Philippines,PH,9212,15.8785099,120.3186429
297,777 Warrior Park,,Marmashen,Armenia,AM,,40.8428562,43.7557983
298,0 Annamark Junction,,Willemstad,Curacao,CW,,12.1224221,-68.8824233
299,940 Dovetail Lane,,Ústí nad Orlicí,Czech Republic,CZ,562 06,49.9747505,16.40677
300,525 Bashford Way,,Prakhon Chai,Thailand,TH,31140,14.6014909,103.0933171
301,91282 Dixon Street,,Nara,Mali,ML,,15.1689378,-7.2895663
302,3456 Waubesa Place,,Tīkāpur,Nepal,NP,,28.5099229,81.1085744
303,810 Fulton Terrace,,Ruzhany,Belarus,BY,,52.8669497,24.8920219
304,758 Arapahoe Alley,,Frederiksberg,Denmark,DK,1972,55.6840317,12.5532982
305,25 Pankratz Terrace,,Bus’k,Ukraine,UA,,49.9693586,24.6094605
306,9489 Larry Road,,Xiadingjia,China,CN,,37.540621,120.506155
307,23 Fallview Point,,União da Vitória,Brazil,BR,84600-000,-26.2219963,-51.0850684
308,4 Randy Point,,Jembayan Hitam,Indonesia,ID,,-6.2176613,106.8679827
309,2125 Weeping Birch Court,,Kaytitinga,Philippines,PH,4901,14.0285468,120.7181027
310,31 Nancy Center,,Berlin,Germany,DE,12307,52.3824851,13.3993839
311,419 Maple Court,,Shuanghekou,China,CN,,30.975286,105.190522
312,2215 Prairie Rose Street,,Mocun,China,CN,,44.439044,125.1797741
313,50 Blackbird Plaza,,Kertosari,Indonesia,ID,,-8.2334215,114.3787108
314,65 Warner Hill,,Oued Lill,Tunisia,TN,,36.83408,10.04057
315,60835 Sunfield Terrace,,Pangligaran,Indonesia,ID,,-7.2211138,108.1798126
316,5 Sage Way,,Basa,Philippines,PH,2316,14.6430983,121.0219885
317,12 Magdeline Hill,,Vårby,Sweden,SE,143 42,59.2669111,17.8885705
318,65 Roxbury Parkway,,Gongming,China,CN,,24.2696,116.116009
319,60 Fairfield Lane,,Rosário do Sul,Brazil,BR,97590-000,-30.2488032,-54.9226452
320,1619 Hoard Court,,Gwangju,South Korea,KR,,35.1595454,126.8526012
321,0 Riverside Place,,Quixadá,Brazil,BR,63900-000,-4.9684385,-39.0161259
322,27953 Sherman Circle,,Klenovyy,Ukraine,UA,,48.1194148,39.4588772
323,091 Loeprich Street,,Marseille,France,FR,13937 CEDEX 20,43.7441795,2.511999
324,4103 David Street,,Dadian,China,CN,,36.867795,120.9057
325,61 International Circle,,Mentaras,Indonesia,ID,,-6.972219,112.4619282
326,7292 Laurel Terrace,,Ciseureuheun,Indonesia,ID,,-6.6126215,105.7233814
327,639 Pierstorff Crossing,,Rantepang,Indonesia,ID,,-2.9252,119.9413
328,01 Homewood Plaza,,Vila Real de Santo António,Portugal,PT,8900-205,37.188956,-7.442223
329,594 Nevada Crossing,,Ribeirão,Portugal,PT,4760-411,41.3495192,-8.5704778
330,41318 Acker Plaza,,Pataias,Portugal,PT,2445-204,39.6832131,-9.0018424
331,52958 Bonner Alley,,Petrozavodsk,Russia,RU,185035,61.7983586,34.3753781
332,4856 Erie Junction,,Lille,France,FR,59034 CEDEX,50.5429237,3.086469
333,7896 Blue Bill Park Terrace,,Ljutomer,Slovenia,SI,9240,46.5193583,16.197814
334,9273 Fairview Junction,,Camgyai,China,CN,,28,86.3
335,9 West Plaza,,Cibodas,Indonesia,ID,,-6.1989828,106.5996595
336,633 Washington Park,,Göteborg,Sweden,SE,402 57,57.7316019,12.0703707
337,0 Texas Hill,,Kingsport,United States,US,37665,36.5804277,-82.5753842
338,6176 Lukken Point,,Xinfeng,China,CN,,25.386379,114.922922
339,94 Gateway Road,,Kajaani,Finland,FI,87900,64.0662338,27.5846719
340,87459 Lien Hill,,Legok,Indonesia,ID,,-6.2836822,106.590819
341,2 Stoughton Lane,,Zaragoza,Colombia,CO,52448,7.48688,-74.8672519
342,169 Truax Way,,Mayma,Russia,RU,659780,52.020802,85.908397
343,96 Magdeline Lane,,Stare Pole,Poland,PL,82-220,54.0471273,19.2012887
344,7 Fisk Park,,Bondoukou,Ivory Coast,CI,,8.0478831,-2.807864
345,6552 Hoepker Avenue,,Rungkam,Indonesia,ID,,-8.4734,119.9896
346,1 Armistice Parkway,,Oeoh,Indonesia,ID,,-9.7366,124.4852
347,44 Blue Bill Park Lane,,Terangun,Indonesia,ID,,3.9990545,96.9638624
348,8396 Carberry Court,,Coasa,Peru,PE,,-13.9871132,-70.0168186
349,4 Surrey Point,,Seke,China,CN,,29.742172,103.583042
350,3892 Surrey Park,,Oujiangcha,China,CN,,28.491356,112.615076
351,55061 Cambridge Hill,,Puncaksempur,Indonesia,ID,,-7.040572,106.8448686
352,56955 North Point,,Vidyayevo,Russia,RU,184389,68.88333,33.01667
353,14551 Macpherson Plaza,,Navoiy,Uzbekistan,UZ,,40.103922,65.3688335
354,8 Maryland Way,,Causip,Philippines,PH,4430,13.4956,123.289
355,94451 Fordem Pass,,Al Muţayrifī,Saudi Arabia,SA,,25.482034,49.5547333
356,09723 Haas Road,,Lianokládhion,Greece,GR,,38.9175948,22.3032419
357,35 Doe Crossing Center,,Carpentras,France,FR,84204 CEDEX,44.0264621,5.0852479
358,86765 Eastlawn Park,,Yanghe,China,CN,,29.26008,110.70434
359,7556 Mayfield Parkway,,Meaux,France,FR,77109 CEDEX,48.9557844,2.8884608
360,9 Michigan Alley,,Bodzechów,Poland,PL,27-420,50.9092557,21.4252753
361,6 Butternut Junction,,Bolobo,Democratic Republic of the Congo,CD,,-2.1587078,16.2345633
362,14 New Castle Place,,Rízoma,Greece,GR,,39.662619,21.7357206
363,629 Bellgrove Alley,,Marabá,Brazil,BR,68500-000,-5.3811326,-49.1331046
364,0 Bowman Circle,,Okayama-shi,Japan,JP,709-0844,34.7487164,134.0793911
365,39 Division Center,,Mirzāpur,Bangladesh,BD,1945,24.0993658,90.1046678
366,88 Columbus Point,,Mercedes,Uruguay,UY,,-33.2604441,-58.0185646
367,00542 Arkansas Center,,Bazar-Korgon,Kyrgyzstan,KG,,41.0285386,72.7392711
368,744 Kennedy Place,,Pamoyanan,Indonesia,ID,,-6.6409658,106.8030892
369,67020 Springview Street,,Munggang,Indonesia,ID,,-6.7837708,107.8569988
370,8 Petterle Street,,Ogwashi-Uku,Nigeria,NG,,6.1816141,6.5303102
371,3463 Valley Edge Way,,Damaturu,Nigeria,NG,,11.7469961,11.9661922
372,461 Stephen Lane,,Granada,Colombia,CO,252257,4.524233,-74.356481
373,77 Basil Circle,,Miches,Dominican Republic,DO,11517,18.5060252,-69.8489425
374,84031 Lerdahl Court,,Patos Fshat,Albania,AL,,40.64278,19.65083
375,8 Shasta Circle,,Shiqiao,China,CN,,22.948016,113.366904
376,2704 Londonderry Terrace,,Tsu-shi,Japan,JP,515-2605,34.668335,136.3670325
377,54001 Comanche Trail,,Biito,Indonesia,ID,,-9.6481,124.5579
378,30189 Declaration Court,,Alto do Estanqueiro,Portugal,PT,2870-610,38.6805556,-8.923648
379,71 Blackbird Lane,,Jarabacoa,Dominican Republic,DO,10801,19.1168606,-70.6097821
380,943 Comanche Street,,Grand Junction,United States,US,81505,39.0638705,-108.5506486
381,081 Aberg Plaza,,Batgrām,Pakistan,PK,21041,34.67719,73.02329
382,69 Brentwood Center,,Khadīr,Afghanistan,AF,,33.8629813,65.7609502
383,03317 Lakewood Drive,,Yingyang,China,CN,,35.683952,-105.943638
384,5 Scofield Avenue,,Nizhniy Novgorod,Russia,RU,603098,56.2995342,44.0013228
385,572 Surrey Pass,,Itapuranga,Brazil,BR,76680-000,-15.5544752,-49.9417277
386,0757 Randy Alley,,Ocala,United States,US,34479,29.2434976,-82.116955
387,810 Colorado Avenue,,Memphis,United States,US,38126,35.1241195,-90.0443217
388,79 Sloan Place,,Ribeira Grande,Portugal,PT,9600-502,37.8210369,-25.5148137
389,3 Summer Ridge Hill,,Skopin,Russia,RU,391833,53.8257473,39.556825
390,4 Pine View Crossing,,Ortiga,Portugal,PT,6120-516,39.4865544,-8.0215061
391,0 Warbler Avenue,,Poponcol,Indonesia,ID,,-6.336862,107.377277
392,9 Iowa Court,,Bukowiec,Poland,PL,86-122,53.4174421,18.2282315
393,85567 Blackbird Alley,,Guta,China,CN,,41.117245,121.128279
394,0490 3rd Street,,Trà My,Vietnam,VN,,15.3487537,108.2286504
395,22 Golf Course Center,,Hacı Zeynalabdin,Azerbaijan,AZ,,40.4422219,49.7584523
396,4 Reinke Trail,,Kåge,Sweden,SE,934 91,64.8962892,21.1114939
397,597 Bellgrove Alley,,Bijelo Polje,Montenegro,ME,,43.0369422,19.7561911
398,27537 Talmadge Junction,,Yatsushiro,Japan,JP,286-0002,35.7914051,140.2792041
399,3 Red Cloud Circle,,Song’ao,China,CN,,29.60095,121.685484
400,1443 Burning Wood Parkway,,Beit Jann,Israel,IL,,32.965655,35.381268
401,254 Morrow Trail,,Fushan,China,CN,,23.021478,113.121435
402,9 Calypso Park,,Sipeng,China,CN,,41.86624,125.582116
403,2758 Grim Center,,Alfta,Sweden,SE,822 30,61.3444468,16.0604207
404,34170 Stephen Center,,Mhango,Tanzania,TZ,,-2.7529366,33.9164563
405,31 Sutteridge Point,,Gręboszów,Poland,PL,33-260,50.2527847,20.7999452
406,832 Kropf Court,,Libenge,Democratic Republic of the Congo,CD,,3.6489578,18.6353764
407,3831 Bunker Hill Alley,,Alofi,Niue,NU,,-19.0553711,-169.9178709
408,51 Sutteridge Crossing,,San Francisco,Colombia,CO,253608,4.974252,-74.291386
409,337 Dottie Pass,,Xindian,China,CN,,37.105382,116.694361
410,55052 Calypso Parkway,,Vohipaho,Madagascar,MG,,-22.3539973,47.8402601
411,52882 Pleasure Point,,Pakuwon,Indonesia,ID,,-7.2157251,107.901989
412,5 Fairfield Point,,San Jose,Philippines,PH,8427,14.5699334,121.0204582
413,767 Red Cloud Place,,Biały Bór,Poland,PL,78-425,53.8964099,16.8352157
414,9 Chinook Plaza,,Debark’,Ethiopia,ET,,13.1509414,37.8989689
415,5 Ramsey Point,,Tála,Cyprus,CY,,34.8412176,32.4297369
416,55644 Tony Avenue,,Dordrecht,Netherlands,NL,3309,51.7783026,4.693265
417,7446 John Wall Point,,Göteborg,Sweden,SE,417 02,57.719258,11.9417454
418,0 Eagan Terrace,,Qiulu,China,CN,,30.713107,120.181069
419,876 Westerfield Court,,Tangzang,China,CN,,34.08611,106.585112
420,29298 Eliot Lane,,Veranópolis,Brazil,BR,95330-000,-28.9427186,-51.5507365
421,6301 Loomis Hill,,Puning,China,CN,,23.297493,116.165777
422,6782 Pawling Plaza,,Mirandela,Portugal,PT,5370-182,41.4853545,-7.1808711
423,964 Muir Street,,Nanxinxiang,China,CN,,28.797983,116.070639
424,53 Debs Plaza,,Haoping,China,CN,,32.820372,107.369453
425,9324 Goodland Center,,Kantharalak,Thailand,TH,33110,14.6066438,104.705431
426,83681 Carpenter Drive,,Ghār al Milḩ,Tunisia,TN,,37.1686873,10.188536
427,19 Mandrake Junction,,Tumen,China,CN,,42.968044,129.84371
428,9 Petterle Hill,,Katsikás,Greece,GR,,39.6222264,20.8874294
429,47 Atwood Junction,,Mulchén,Chile,CL,,-37.7178812,-72.2374343
430,83154 Mayfield Hill,,Guohe,China,CN,,28.94074,113.447431
431,89306 Goodland Hill,,Pointe-Noire,Republic of the Congo,CG,,-4.7691623,11.866362
432,4305 Forster Way,,Asia,Peru,PE,,-12.8010669,-76.5257007
433,0993 Packers Point,,Ia Kha,Vietnam,VN,,13.9645426,107.852463
434,4 Glacier Hill Pass,,Malešići,Bosnia and Herzegovina,BA,,44.7416079,18.2727658
435,524 Annamark Road,,Ichupampa,Peru,PE,,-15.6500913,-71.6869874
436,863 Upham Parkway,,Hetou,China,CN,,24.3520171,116.6930225
437,5971 Summerview Drive,,Momil,Colombia,CO,232008,9.239504,-75.6767349
438,111 Lindbergh Road,,Khānewāl,Pakistan,PK,58181,30.2102442,71.486643
439,4 Karstens Hill,,Xiaojiangba,China,CN,,31.098293,117.83785
440,0705 Green Ridge Circle,,Muranovo,Russia,RU,385741,56.178249,37.902732
441,6 Beilfuss Road,,Al Jawf,Libya,LY,,24.2086649,23.3347215
442,25953 Emmet Lane,,Saint-Jean-de-Monts,France,FR,85164 CEDEX,46.8260183,-2.1318548
443,4877 Carioca Park,,Jakartovice,Czech Republic,CZ,747 53,49.9114346,17.6628187
444,72 Johnson Trail,,Gaojia,China,CN,,29.9460643,122.3032914
445,59 Maple Wood Crossing,,Fuhe,China,CN,,47.298877,132.09903
446,37193 Mayfield Junction,,Hanshou,China,CN,,28.906106,111.970514
447,6 Northland Junction,,Panikihan,Philippines,PH,4307,13.9314921,122.0915082
448,5 Ohio Park,,Xiadingjia,China,CN,,37.540621,120.506155
449,03462 Little Fleur Junction,,Shuitian,China,CN,,23.1197573,113.3053411
450,6860 Granby Place,,Buenavista,Mexico,MX,39250,19.4458447,-99.1497664
451,8627 Ruskin Junction,,Goléré,Senegal,SN,,16.2488504,-14.108845
452,0 Farmco Center,,Bochum,Germany,DE,44795,51.449197,7.1957779
453,93 Lakewood Gardens Park,,El Zapote,Mexico,MX,39949,20.7595709,-103.427389
454,6894 Loftsgordon Parkway,,Khemarat,Thailand,TH,34170,16.0481202,105.1375908
455,8063 Mockingbird Lane,,Changning,China,CN,,31.220367,121.424624
456,8163 Pawling Road,,Tacoma,United States,US,98447,47.1427431,-122.4407344
457,331 Carioca Alley,,Wutan,China,CN,,28.521771,111.746328
458,98 Schiller Terrace,,Shimen,China,CN,,29.584292,111.380014
459,1713 Ludington Road,,Buzdyak,Russia,RU,452719,54.5815949,54.5367341
460,66585 Becker Trail,,Thị Trấn Hùng Quốc,Vietnam,VN,,22.8533627,106.3287199
461,3806 Bayside Trail,,Soledade,Brazil,BR,99300-000,-28.832995,-52.5745556
462,7 Scoville Road,,Chachoengsao,Thailand,TH,30330,13.6902068,101.0701959
463,377 Utah Lane,,La Cruz,Colombia,CO,521028,1.6135167,-76.8951551
464,76872 Summerview Hill,,Bradashesh,Albania,AL,,41.1036618,20.0226337
465,8143 Grasskamp Point,,Gongnong,China,CN,,47.31878,130.274684
466,2239 Oak Terrace,,Tuchengzi,China,CN,,46.748522,82.978928
467,819 Lighthouse Bay Place,,Duli,China,CN,,25.606486,100.267638
468,7986 Meadow Ridge Circle,,København,Denmark,DK,1240,44.351935,-87.8445954
469,40 Schurz Avenue,,Pointe-à-Pitre,Guadeloupe,GP,97159 CEDEX,16.2413934,-61.5340396
470,846 Badeau Pass,,Jingzhuang,China,CN,,34.811495,108.531138
471,9 Upham Way,,Kubangwaru,Indonesia,ID,,-7.3268042,108.7971149
472,51775 Thompson Road,,Molo,Kenya,KE,,-0.2488358,35.7323709
473,9001 Rowland Lane,,São Luís,Brazil,BR,65000-000,-2.5421083,-44.3290923
474,877 Fallview Center,,Kouvola,Finland,FI,45201,60.7651227,26.7869193
475,455 Nevada Plaza,,Malakwāl,Pakistan,PK,50730,32.5443894,73.1990129
476,7493 Fisk Court,,Longkou,China,CN,,37.646108,120.477813
477,8324 Bartillon Circle,,Borgholm,Sweden,SE,387 34,56.8744773,16.6629189
478,14 Merchant Terrace,,Muaralembu,Indonesia,ID,,-0.385783,101.337097
479,050 Redwing Way,,Siikainen,Finland,FI,29811,61.8879727,22.0502411
480,8431 Ridgeway Alley,,Zhangjiahe,China,CN,,29.117096,110.479191
481,48004 Erie Pass,,Villeneuve-lès-Avignon,France,FR,30404 CEDEX,43.963917,4.796809
482,4104 Fordem Place,,Citeureup,Indonesia,ID,,-6.4933318,106.8809319
483,139 Gulseth Drive,,Shijing,China,CN,,24.625561,118.431541
484,92 Glacier Hill Pass,,Saint-Pierre,Reunion,RE,97453 CEDEX,-21.1041295,55.2484176
485,95413 Katie Circle,,Khorinsk,Russia,RU,671410,52.1662684,109.7765741
486,71 Acker Trail,,Tiblawan,Philippines,PH,3503,6.6450416,125.3013286
487,14034 Oneill Street,,Dongzha,China,CN,,38.918056,117.448512
488,5 Browning Lane,,Pār Naogaon,Bangladesh,BD,9202,24.805208,88.9497046
489,12156 Hudson Road,,Silae,Philippines,PH,8422,8.1592413,125.2824211
490,627 Karstens Pass,,Rawson,Argentina,AR,9103,-37.9707308,-57.6258993
491,48541 Lighthouse Bay Lane,,Casselman,Canada,CA,G8A,45.3168,-75.0826
492,95357 Toban Crossing,,Doloplazy,Czech Republic,CZ,783 56,49.5671764,17.4114814
493,78241 Southridge Trail,,Bakau,Indonesia,ID,,-5.85,105.75
494,257 Debra Parkway,,Dukhovshchina,Russia,RU,216210,55.1952113,32.4000893
495,2 Ridge Oak Way,,Las Lomas,Panama,PA,,8.4430125,-82.3777335
496,4 Magdeline Way,,Al Qūşīyah,Egypt,EG,,27.4378935,30.8162909
497,26225 Kinsman Junction,,Red Hill,New Zealand,NZ,2110,-37.0716565,174.9770262
498,9 Corry Terrace,,Tengqiao,China,CN,,27.9937685,120.6784858
499,28697 Rockefeller Drive,,Zaranj,Afghanistan,AF,,30.9606622,61.8526229
500,751 Roxbury Park,,Junchuan,China,CN,,31.648038,113.229941
501,4 Jay Drive,,Beutong Ateuh,Indonesia,ID,,4.4613091,96.5249759
502,7288 Scott Terrace,,Ronov nad Doubravou,Czech Republic,CZ,538 42,49.8881618,15.5262702
503,2 Killdeer Pass,,Moravský Krumlov,Czech Republic,CZ,672 01,49.0337963,16.2983865
504,75978 Farmco Lane,,Lasehao,Indonesia,ID,,-5.0077012,122.5019655
505,02 Heath Hill,,Caijiazha,China,CN,,30.910965,114.827038
506,62987 Macpherson Alley,,Bobrov,Russia,RU,397706,51.0846,39.9972
507,0 Mayfield Point,,Fotolívos,Greece,GR,,41.0606685,24.0475546
508,4 Hanover Hill,,Jinggongqiao,China,CN,,29.744095,117.217373
509,445 Northwestern Terrace,,Borzęcin,Poland,PL,32-825,50.0695752,20.7162493
510,5275 Oakridge Way,,Dunkerque,France,FR,59640,51.0149751,2.343224
511,33 Northport Trail,,Harstad,Norway,NO,9414,68.7986342,16.5414503
512,5150 Trailsway Circle,,Kaduna,Nigeria,NG,,10.5104642,7.4165053
513,716 Hanover Point,,Gojō,Japan,JP,648-0002,34.3507417,135.6964987
514,4474 Riverside Alley,,Kaustinen,Finland,FI,69601,63.537266,23.6993197
515,1 6th Parkway,,Chistopol’,Russia,RU,422986,55.3578708,50.5809058
516,81 Oak Trail,,Subusub,Philippines,PH,4210,16.228139,120.4936309
517,873 Green Ridge Center,,Yao,Japan,JP,701-0301,34.6192998,133.8246072
518,21973 Mallory Place,,Mayskiy,Russia,RU,301649,45.1253665,42.0223291
519,8 Londonderry Plaza,,Longquan,China,CN,,28.074649,119.141473
520,1 Butternut Drive,,Thị Trấn Quế,Vietnam,VN,,20.579097,105.8711861
521,1 Jana Center,,Shangyanzhuang,China,CN,,32.627566,113.808422
522,26239 Browning Way,,Roissy Charles-de-Gaulle,France,FR,95711 CEDEX 1,49.0096906,2.5479245
523,9 Garrison Junction,,Ransang,Philippines,PH,1080,8.9061016,117.5524235
524,216 Grayhawk Court,,Dahu,Indonesia,ID,,-6.3818749,105.8862812
525,9775 Buena Vista Center,,Saratamata,Vanuatu,VU,,-15.3745452,167.8138553
526,8 Northport Court,,Huangjiazhai,China,CN,,28.988133,110.206177
527,387 Goodland Road,,Burauen,Philippines,PH,6516,10.8991156,124.8507146
528,2484 Northland Parkway,,Fangli,China,CN,,29.990745,121.49591
529,1 Bowman Lane,,Cikaduen,Indonesia,ID,,-6.3947391,106.0081819
530,0928 Butterfield Hill,,Oussivo,Comoros,KM,,-11.5886713,43.277533
531,5 Karstens Lane,,Huangxi,China,CN,,23.7247599,108.8076195
532,9 Daystar Pass,,Neuquén,Argentina,AR,8300,-34.7277137,-58.3326356
533,7253 Susan Avenue,,Shawnee Mission,United States,US,66276,39.0269443,-94.6673484
534,586 Scoville Trail,,Abnūb,Egypt,EG,,27.2674027,31.151928
535,89 Lawn Terrace,,Gimbi,Ethiopia,ET,,9.1860402,35.8334494
536,7 Oak Valley Circle,,Sanxing,China,CN,,29.763892,121.513271
537,4329 Mifflin Court,,Vřesina,Czech Republic,CZ,747 20,49.9469881,18.1870189
538,8025 Becker Way,,Lille,France,FR,59784 CEDEX 9,44.1675867,2.0308233
539,70 Ronald Regan Place,,Changyŏn,North Korea,KP,,38.2527464,125.0911142
540,216 David Crossing,,Malaga,Philippines,PH,1109,14.3758164,121.0390378
541,4 Westport Center,,Beibei,China,CN,,29.805107,106.395612
542,26279 Eastwood Circle,,Shuixi,China,CN,,21.377246,110.250123
543,72 Forest Circle,,Bururi,Burundi,BI,,-3.9479261,29.6238368
544,9538 Hayes Point,,Zwolle,Netherlands,NL,8044,52.5470847,6.0237938
545,03026 Cascade Street,,Uryupinsk,Russia,RU,403140,50.7326515,41.9594576
546,2 Hovde Place,,San Jose,Mexico,MX,85227,25.8007724,-100.4277766
547,21323 Erie Place,,Graksop,South Africa,ZA,1274,-24.6258027,30.7565467
548,1 Judy Drive,,Koronganayam,Indonesia,ID,,-6.2969238,106.9222137
549,613 Stone Corner Street,,Mandi Bahāuddīn,Pakistan,PK,50470,32.5992796,73.4803095
550,199 Pawling Junction,,Marsada,Philippines,PH,9215,5.976337,121.2234268
551,06348 Mayfield Hill,,Qal‘at al Andalus,Tunisia,TN,,37.066667,10.116667
552,774 Holy Cross Lane,,Siguqiao,China,CN,,28.743812,118.272674
553,308 Brickson Park Terrace,,Banjar Dauhmargi,Indonesia,ID,,-8.4704285,115.1204095
554,8 Fair Oaks Hill,,Sikonge,Tanzania,TZ,,-5.6229011,32.7548364
555,2572 Farmco Avenue,,Zhongying,China,CN,,39.953041,116.371207
556,491 Spohn Hill,,Beizhang,China,CN,,36.09873,113.324384
557,6 Fairview Crossing,,Qiling,China,CN,,24.086165,115.451043
558,7 Vernon Parkway,,Renliu,China,CN,,36.9473226,108.7379191
559,380 Stephen Junction,,Yono,Japan,JP,707-0112,35.0900891,134.1994263
560,9045 Reindahl Street,,Mekarsari,Indonesia,ID,,-8.3765619,115.1918802
561,5 Granby Hill,,Piraju,Brazil,BR,18800-000,-23.1770971,-49.3838782
562,8 Pawling Court,,Sharm el-Sheikh,Egypt,EG,,27.9158175,34.3299505
563,26092 Brentwood Hill,,Woro,Indonesia,ID,,-6.6772938,111.540868
564,027 John Wall Court,,Chunhu,China,CN,,29.56492,121.52229
565,25260 Nobel Trail,,João Pinheiro,Brazil,BR,38770-000,-17.7405182,-46.1741639
566,9113 Garrison Plaza,,Aoufous,Morocco,MA,,31.6890813,-4.1788953
567,96119 Riverside Junction,,Passos,Brazil,BR,37900-000,-20.7430332,-46.6096926
568,26828 Cordelia Avenue,,Oni,Indonesia,ID,,-10.082036,124.458641
569,38 Kingsford Road,,Lupon,Philippines,PH,6405,14.576059,121.122805
570,22 Golf Course Park,,Baddomalhi,Pakistan,PK,22501,31.9922283,74.6768812
571,76 School Parkway,,Maseru,Lesotho,LS,,-29.3632188,27.5143603
572,086 Chinook Lane,,Siso,Indonesia,ID,,0.9996757,97.527432
573,8247 Harper Terrace,,Guéret,France,FR,23009 CEDEX,46.1705063,1.8852108
574,7 Ramsey Court,,Hofors,Sweden,SE,813 27,60.5770445,16.5120356
575,598 Towne Crossing,,Sempu,Indonesia,ID,,-8.4428564,112.6973355
576,001 Lakewood Gardens Way,,Leeuwarden,Netherlands,NL,8934,53.1913133,5.8065627
577,943 Rusk Terrace,,Takarazuka,Japan,JP,666-0137,34.5521789,136.5175749
578,77 Summit Street,,Watoona,Indonesia,ID,,-8.4793,123.0902
579,1 Northview Point,,El Corozal,Honduras,HN,,16.3456563,-86.5135502
580,74 Jay Trail,,Tres Isletas,Argentina,AR,4129,-26.3374785,-60.4304186
581,30 Summer Ridge Pass,,Prínos,Greece,GR,,40.7408774,24.5772111
582,95820 Stuart Point,,Mae Lan,Thailand,TH,94180,6.647477,101.2353772
583,4833 Goodland Center,,Dawang,China,CN,,34.481455,108.386208
584,75925 Kenwood Terrace,,Donglu,China,CN,,23.0861808,113.4943199
585,083 Lindbergh Place,,Naro-Fominsk,Russia,RU,143316,55.4211657,36.6585689
586,45268 Petterle Point,,Taibao,China,CN,,31.231121,121.466039
587,6254 Spaight Circle,,Tegalrejo,Indonesia,ID,,-7.7798092,110.3562018
588,604 Coleman Junction,,Thiers,France,FR,63304 CEDEX,45.85029,3.53936
589,3989 Novick Place,,Izumi,Japan,JP,993-0031,38.0818216,140.0392974
590,821 Portage Circle,,Baganga,Philippines,PH,1219,7.5958893,126.4361995
591,1 Susan Court,,Wutun,China,CN,,30.592849,114.305539
592,984 Elka Junction,,Bar,Montenegro,ME,,42.0912106,19.089904
593,957 Morrow Point,,Hongshan,China,CN,,22.517585,113.39277
594,7 Leroy Point,,Boyarka,Ukraine,UA,,50.317117,30.298167
595,35 Stang Hill,,Sumberkrajan,Indonesia,ID,,-7.5476215,110.8102573
596,25 Banding Place,,Zhoutou,China,CN,,29.86548,116.328879
597,49 Straubel Alley,,Melíssi,Greece,GR,,38.0473429,22.6834064
598,9140 Del Sol Crossing,,Mabay,Philippines,PH,3311,6.0593972,124.4870869
599,04 Amoth Junction,,Siqiao,China,CN,,22.948016,113.366904
600,7234 Westerfield Center,,Changtan,China,CN,,24.64995,116.156645
601,91 Vermont Alley,,Langtang,Nigeria,NG,,9.1482421,9.7985457
602,1 7th Crossing,,Châlons-en-Champagne,France,FR,51039 CEDEX,48.977664,4.3569639
603,394 Elka Road,,Anabar,Nauru,NR,,-0.5133517,166.9484624
604,3692 Becker Avenue,,Xinminxiang,China,CN,,28.932316,115.565454
605,841 Sunfield Alley,,Dhamār,Yemen,YE,,14.5455447,44.4087348
606,4 Swallow Circle,,Bahe,China,CN,,32.809026,110.112629
607,45821 South Alley,,Huangshui,China,CN,,36.7146675,102.0851431
608,8 Acker Point,,Triolet,Mauritius,MU,,-20.0583696,57.5504453
609,52 Bluejay Drive,,Carvalhinho,Portugal,PT,2860-343,38.651124,-8.971304
610,72183 Cascade Drive,,Huanggang,China,CN,,30.453667,114.872199
611,9130 Browning Way,,Revava,Israel,IL,,32.11871,35.129583
612,99573 Anzinger Terrace,,Zhenyuan,China,CN,,27.049109,108.42969
613,6483 South Hill,,Bacheng,China,CN,,31.455948,120.879101
614,95677 Debs Avenue,,Imbituva,Brazil,BR,84430-000,-25.2641605,-50.6378804
615,896 Burning Wood Trail,,Chaguaní,Colombia,CO,253237,4.949601,-74.593836
616,926 High Crossing Terrace,,Tomioka,Japan,JP,999-8524,39.0371526,139.9056877
617,8 Darwin Parkway,,Gayamsari,Indonesia,ID,,-6.9818839,110.447063
618,387 Huxley Drive,,Gaur,Nepal,NP,,26.7831243,85.2774207
619,3593 Elgar Avenue,,Naprawa,Poland,PL,34-721,52.3310677,20.9706537
620,2123 Division Place,,Wedangtemu,Indonesia,ID,,-7.068917,108.399785
621,6 Alpine Way,,Norashen,Armenia,AM,,40.6573682,44.0769342
622,53290 Reindahl Junction,,Schaumburg,United States,US,60193,42.0130165,-88.099845
623,8 Manley Road,,Bayambang,Philippines,PH,2423,15.8127,120.4557
624,99 Division Park,,Kubangkondang,Indonesia,ID,,-6.4342997,105.896559
625,98842 Sommers Center,,Chicoana,Argentina,AR,4423,-25.1042007,-65.5381671
626,6177 Caliangt Crossing,,Kotli Lohārān,Pakistan,PK,51841,32.5887159,74.5022234
627,84 Pepper Wood Plaza,,Dengmingsi,China,CN,,37.892744,116.745762
628,2 Talmadge Place,,Ciudad Bolívar,Venezuela,VE,,8.0882791,-63.5535552
629,87904 Shelley Plaza,,Dzvinogrud,Ukraine,UA,,49.73333,24.25
630,5866 Rockefeller Point,,Buena Vista,Bolivia,BO,,-17.4586651,-63.6691522
631,71472 Hovde Pass,,Sveg,Sweden,SE,842 93,61.9581691,14.8300464
632,8 Kenwood Lane,,São João de Meriti,Brazil,BR,25500-000,-22.790968,-43.369805
633,281 Melody Crossing,,Jiaozuo,China,CN,,35.215892,113.241823
634,08900 Ohio Street,,Ermidas do Sado,Portugal,PT,7565-205,38.0068597,-8.385532
635,2420 Melby Place,,Kizilyurt,Russia,RU,368551,43.0717734,46.8488828
636,963 Harbort Park,,Laoag,Philippines,PH,4207,14.4332941,121.0303692
637,5855 Welch Hill,,Preston,United Kingdom,GB,PR1,53.763201,-2.70309
638,7032 Bashford Trail,,Horlivka,Ukraine,UA,,48.3071,38.029633
639,2 Gerald Parkway,,Angers,France,FR,49066 CEDEX 01,48.8693156,2.3501981
640,202 Di Loreto Circle,,General Vedia,Argentina,AR,3522,-34.5446946,-58.486757
641,9 Bowman Court,,Mora,Sweden,SE,792 92,60.7865441,14.1928243
642,3170 Lakewood Way,,Shuinan,China,CN,,36.457599,111.439528
643,6374 Golf View Parkway,,Bačka Palanka,Serbia,RS,,45.2497275,19.3967698
644,79 Iowa Point,,Ban Tak,Thailand,TH,63120,17.0405373,99.0571089
645,0 Sage Junction,,Mungyeong,South Korea,KR,,36.586148,128.1867972
646,9984 Annamark Center,,Olds,Canada,CA,T4H,51.7920135,-114.105279
647,6028 Novick Place,,Salanegara,Indonesia,ID,,-8.1094987,115.1618941
648,94723 Lien Alley,,Boguszów-Gorce,Poland,PL,58-371,50.7852989,16.164006
649,714 Roxbury Drive,,Qiaodi,China,CN,,34.600701,108.722463
650,0879 Blue Bill Park Lane,,Jiahe,China,CN,,25.587519,112.36902
651,897 Ridgeview Plaza,,Karangintan,Indonesia,ID,,-3.4865398,114.9754175
652,7992 Paget Avenue,,Štitar,Serbia,RS,,44.7783548,19.5985451
653,5 Melby Junction,,Kīsh,Iran,IR,,26.5324775,53.9867949
654,91033 Reindahl Center,,Dushu,China,CN,,31.267134,120.7062535
655,45 Clemons Alley,,Vologda,Russia,RU,160034,59.1983958,39.8321001
656,26 Cottonwood Avenue,,Telouet,Morocco,MA,,31.2888328,-7.2396659
657,30 Debs Pass,,Barisāl,Bangladesh,BD,8206,22.7029212,90.3465971
658,1 Del Sol Center,,Dongxiaokou,China,CN,,40.058197,116.408772
659,5386 4th Court,,Sucre,Peru,PE,,-6.9415153,-78.1350635
660,446 Jenna Alley,,Odeleite,Portugal,PT,8950-355,37.3342647,-7.4879608
661,2 Lien Circle,,Swellendam,South Africa,ZA,6743,-34.069556,20.6764877
662,9282 Dixon Street,,Governor’s Harbour,Bahamas,BS,,25.1962025,-76.2406701
663,4 Amoth Alley,,Nīca,Latvia,LV,,56.3464983,21.065493
664,052 Sycamore Crossing,,Volzhskiy,Russia,RU,404109,48.7736083,44.8250459
665,3228 Mariners Cove Crossing,,Al Farwānīyah,Kuwait,KW,,29.273357,47.9400154
666,84256 Scoville Hill,,Lynn,United States,US,1905,42.4678076,-70.9844
667,1 Scott Lane,,Luwingu,Zambia,ZM,,-10.2474296,29.9104436
668,89 Holy Cross Circle,,Kaolinovo,Bulgaria,BG,9960,43.6165639,27.091526
669,86 Hansons Avenue,,Paris 01,France,FR,75100 CEDEX 01,43.4945737,5.8978018
670,90 Bultman Trail,,Dolní Bečva,Czech Republic,CZ,756 55,49.4679131,18.2282007
671,3 3rd Way,,Xiong’erzhai,China,CN,,40.284979,117.134151
672,38399 Muir Parkway,,Yanfolila,Mali,ML,,11.1780136,-8.1529749
673,94629 Nova Plaza,,Miguelópolis,Brazil,BR,14530-000,-20.179973,-48.0309631
674,259 Declaration Circle,,Anderstorp,Sweden,SE,334 80,57.3423349,13.7300442
675,3 Caliangt Pass,,Envira,Brazil,BR,69870-000,-7.4782808,-69.8597406
676,430 Schurz Alley,,Mnogoudobnoye,Russia,RU,416305,43.46802,132.46674
677,07 Pennsylvania Parkway,,Puerto Montt,Chile,CL,,-41.468917,-72.9411364
678,63 Anzinger Alley,,Lishan,China,CN,,27.622444,112.410417
679,83 Lyons Point,,Vidual,Portugal,PT,3220-350,40.1300413,-8.3176644
680,437 Roth Street,,Bosen,Indonesia,ID,,-9.7085741,124.3032719
681,716 Carey Point,,Xuyong,China,CN,,28.155801,105.444765
682,3918 Ryan Parkway,,Langchi,China,CN,,26.085391,119.583599
683,01064 Karstens Point,,Santa Ana Huista,Guatemala,GT,13031,15.6835,-91.81952
684,1 Morningstar Park,,Jambesari,Indonesia,ID,,-7.9841814,113.8376522
685,60 Corben Court,,Shuangcheng,China,CN,,45.383263,126.3127449
686,089 Rutledge Hill,,Petropavlivka,Ukraine,UA,,48.4187171,36.429969
687,03 Londonderry Place,,Sihe,China,CN,,39.91983,116.41571
688,3520 Lien Junction,,Honghuatao,China,CN,,30.514352,111.402171
689,0 Burrows Hill,,Kota Bharu,Malaysia,MY,15740,6.1097207,102.2462087
690,703 Lakewood Point,,Dembeni,Mayotte,YT,97660,-12.836985,45.176077
691,5784 Vera Terrace,,Volodarka,Ukraine,UA,,49.5265342,29.9197237
692,8 Fair Oaks Pass,,Manjacaze,Mozambique,MZ,,-24.7057037,33.8801952
693,8408 Barnett Trail,,Xindu,China,CN,,30.823499,104.158705
694,90952 Sunnyside Crossing,,Cana Chapetón,Dominican Republic,DO,11004,19.604951,-71.252526
695,4800 Pine View Parkway,,Fairview,Canada,CA,L1M,56.06675,-118.38606
696,017 Roth Junction,,Poponcol,Indonesia,ID,,-6.336862,107.377277
697,73073 Farragut Avenue,,Xiangyang,China,CN,,32.009016,112.122426
698,624 Waywood Hill,,Nanxia,China,CN,,37.198731,106.1580937
699,35 Prentice Crossing,,Benito Juarez,Mexico,MX,31770,22.2016816,-97.8367954
700,0609 Bluestem Center,,Mangochi,Malawi,MW,,-14.4861733,35.253304
701,2 Harper Center,,Manjing,China,CN,,32.060255,118.796877
702,53 Monica Circle,,Boulaide,Luxembourg,LU,L-9640,49.886516,5.8121284
703,089 Redwing Circle,,Sakura,Japan,JP,989-2433,38.1086472,140.8706157
704,7183 Mayer Plaza,,Tiassalé,Ivory Coast,CI,,5.9042627,-4.8261424
705,0 International Point,,Quezon,Philippines,PH,8715,7.7299001,125.1001641
706,5 Milwaukee Parkway,,Zolochiv,Ukraine,UA,,49.80941,24.901371
707,78505 Lakewood Avenue,,Zielona Góra,Poland,PL,65-980,51.9210929,15.4768834
708,2675 Springview Alley,,Air Bangis,Indonesia,ID,,0.2770603,99.3451118
709,982 Nova Park,,Huaibei,China,CN,,33.955844,116.798265
710,1 Sutherland Circle,,Figueira dos Cavaleiros,Portugal,PT,7900-234,38.09234,-8.204915
711,922 Scoville Park,,Samoljica,Serbia,RS,,42.385811,21.7405988
712,7 Hazelcrest Trail,,Carrazeda de Ansiães,Portugal,PT,5140-058,41.240005,-7.3038414
713,1624 Monterey Park,,Xinshan,China,CN,,30.741991,121.341969
714,47620 Vermont Terrace,,Hexia,China,CN,,31.634971,119.64519
715,45984 Northland Circle,,Peterborough,Canada,CA,K9H,44.330811,-78.3216329
716,8 Forest Terrace,,Ngepoh Kidul,Indonesia,ID,,-7.8121361,113.2424227
717,27907 Kings Junction,,Qandala,Somalia,SO,,11.4720137,49.8739267
718,01264 Sherman Park,,Neochóri,Greece,GR,,39.3046388,23.2207655
719,76 Farwell Hill,,Tanjungpati,Indonesia,ID,,-0.1869837,100.6537593
720,489 Corry Park,,Bajo Naranjillo,Peru,PE,,-5.81526,-77.3826845
721,6 Forest Plaza,,Taroudant,Morocco,MA,,30.4727126,-8.8748765
722,7 Jackson Way,,Niedźwiedź,Poland,PL,34-735,49.6076079,20.0926064
723,37390 Mitchell Plaza,,Bishan,China,CN,,29.592024,106.227305
724,70 Warrior Center,,Libas,Philippines,PH,9212,15.8785099,120.3186429
725,2 Buena Vista Pass,,Wuma,China,CN,,28.01082,120.663064
726,7724 Fisk Circle,,Taremskoye,Russia,RU,606135,55.9255289,43.0452992
727,92311 Victoria Plaza,,Grimshaw,Canada,CA,N4W,45.0417524,-73.9260044
728,6 Waywood Terrace,,Muang Sing,Laos,LA,,21.1881873,101.1504111
729,566 Dawn Terrace,,Velykoploske,Ukraine,UA,,47.0132508,29.6697768
730,3673 Spaight Center,,Santa Clara,Cuba,CU,,22.424398,-79.9416549
731,617 John Wall Center,,Okaya,Japan,JP,520-2541,35.0475045,136.1219714
732,636 Graedel Avenue,,Fuding,China,CN,,27.324479,120.216978
733,1 Loftsgordon Way,,Tanjay,Philippines,PH,6203,14.6925714,121.0468246
734,761 Eagle Crest Drive,,Uto,Japan,JP,714-1405,34.687701,133.5775129
735,097 Vernon Hill,,Calapan,Philippines,PH,5200,13.4124777,121.1790492
736,119 Nelson Trail,,Hayil,Saudi Arabia,SA,,27.7076143,41.9196471
737,42009 Weeping Birch Lane,,Huayuan,China,CN,,28.572029,109.482078
738,485 Dryden Junction,,Shazi,China,CN,,31.938731,113.165197
739,5 Monument Plaza,,Nanjing,China,CN,,32.060255,118.796877
740,778 Northfield Point,,Sölvesborg,Sweden,SE,294 21,56.0633738,14.5468659
741,21 Service Hill,,Polazna,Russia,RU,618703,58.3005959,56.4173346
742,92178 Independence Crossing,,Buraen,Indonesia,ID,,-10.2876794,123.8969328
743,83 Dahle Circle,,Aoyang,China,CN,,31.859964,120.411393
744,327 Barnett Place,,Moss,Norway,NO,1522,59.3779388,10.7605604
745,041 Hallows Lane,,Wurno,Nigeria,NG,,13.2838698,5.4201377
746,14776 Monica Terrace,,Chokwé,Mozambique,MZ,,-24.5323166,32.9831998
747,7 North Terrace,,Sulaco,Honduras,HN,,14.913868,-87.26432
748,6 Glacier Hill Parkway,,Khorlovo,Russia,RU,140235,55.3315791,38.8842656
749,049 Veith Road,,Jieshan,China,CN,,30.830898,120.92585
750,88368 Del Mar Drive,,Xiaotao,China,CN,,25.732824,117.130129
751,284 Hoffman Way,,Timbuktu,Mali,ML,,16.7665887,-3.0025615
752,63 Hollow Ridge Park,,Otaniemi,Finland,FI,32700,60.8255382,21.3556594
753,72595 Bellgrove Trail,,Ribeira do Pombal,Brazil,BR,48400-000,-10.7824056,-38.5761383
754,6 Fremont Place,,Glugur Tengah,Indonesia,ID,,3.592116,98.668662
755,4409 Rutledge Point,,Nūr,Iran,IR,,36.5750373,52.026838
756,0496 Mayer Place,,Torslanda,Sweden,SE,423 55,57.7550378,11.814933
757,0 Lindbergh Hill,,Nagbukel,Philippines,PH,2725,17.4465041,120.5273983
758,530 Mcguire Pass,,Dinaig,Philippines,PH,8310,7.1849927,124.1839966
759,98363 Park Meadow Way,,Rungis,France,FR,94518 CEDEX 1,48.7700185,2.3508225
760,57 Shasta Drive,,Carice,Haiti,HT,,19.3789666,-71.831932
761,66978 Armistice Circle,,Aimorés,Brazil,BR,35200-000,-19.4959312,-41.0713439
762,3 5th Place,,Hữu Lũng,Vietnam,VN,,21.5659824,106.2992912
763,0 Merrick Center,,Ghāro,Pakistan,PK,73210,24.4506879,67.5882847
764,0 Fordem Road,,Qal‘ah-ye Shahr,Afghanistan,AF,,35.54729,65.5676
765,449 Messerschmidt Terrace,,Gayam,Indonesia,ID,,-5.7577862,105.6984455
766,309 Marquette Trail,,Clanwilliam,South Africa,ZA,8138,-25.8700559,28.158466
767,724 Nevada Street,,Shiqiao,China,CN,,22.948016,113.366904
768,01422 Golf Course Parkway,,Pappadátes,Greece,GR,,39.3134407,20.7929638
769,2 Clarendon Street,,San Andres,Philippines,PH,5504,14.4693883,121.0059518
770,4304 Sycamore Parkway,,Dahu Satu,Indonesia,ID,,-6.1944094,106.582844
771,0 Rieder Parkway,,Staryye Atagi,Russia,RU,366303,43.1227567,45.7420648
772,4 Merrick Junction,,Asempapak,Indonesia,ID,,-6.9957759,112.5677183
773,33 Crowley Street,,Xidajie,China,CN,,34.2579981,108.9422832
774,8807 Petterle Street,,New York City,United States,US,10039,40.8288377,-73.9374517
775,0 Rockefeller Terrace,,Tonoas Municipal Building,Micronesia,FM,,7.3760605,151.8843916
776,3 Coolidge Place,,Dorchester,Canada,CA,E4K,45.900828,-64.5169467
777,576 Fisk Plaza,,Umag,Croatia,HR,52470,45.4372062,13.5257205
778,46403 Old Shore Terrace,,Itacarambi,Brazil,BR,39470-000,-15.0738149,-44.1340439
779,35612 Hoepker Plaza,,Yampil’,Ukraine,UA,,48.2441219,28.2765218
780,6 Canary Court,,Boucinhas,Portugal,PT,4650-805,41.3532895,-8.2103678
781,0057 West Plaza,,Itzer,Morocco,MA,,32.8771669,-5.0533632
782,449 Lakewood Place,,Vitória,Brazil,BR,29000-000,-20.2976178,-40.2957768
783,13836 Golf View Trail,,Vershino-Shakhtaminskiy,Russia,RU,673613,51.3035449,117.8793825
784,22202 Pepper Wood Road,,Huanggu,China,CN,,41.824796,123.44197
785,27058 Forest Run Center,,Dunkerque,France,FR,59376 CEDEX 1,51.0515566,2.3605584
786,5393 Declaration Parkway,,Piasek,Poland,PL,43-211,50.0144943,18.9268881
787,7837 Esch Circle,,Kasturi,Indonesia,ID,,-7.0148687,108.3534306
788,643 Dunning Center,,Chābahār,Iran,IR,,25.296878,60.6459285
789,410 Colorado Hill,,Novaya Igirma,Russia,RU,665684,57.1355803,103.9325393
790,0 Sunbrook Street,,El Aguacate,Mexico,MX,40687,18.855626,-98.189463
791,703 Sundown Way,,Fortaleza,Brazil,BR,60000-000,-3.7600304,-38.5349814
792,8 Northwestern Place,,Ulan Hua,China,CN,,41.5220136,111.7047656
793,4 School Crossing,,Iwierzyce,Poland,PL,39-124,50.0287787,21.7557084
794,79556 Maple Wood Hill,,Busan,South Korea,KR,,35.1795543,129.0756416
795,84 Badeau Center,,Heshui,China,CN,,35.819227,108.019549
796,3348 Havey Avenue,,Ugljan,Croatia,HR,23275,44.1316723,15.1038874
797,0084 Barnett Place,,Carcarañá,Argentina,AR,2138,-34.7356949,-58.6340339
798,970 Mallard Avenue,,Taboão da Serra,Brazil,BR,06750-000,-23.6228759,-46.7816647
799,79532 Maple Hill,,Viana,Brazil,BR,65215-000,-3.2023658,-45.0373171
800,53944 Shelley Terrace,,Ishqoshim,Tajikistan,TJ,,36.7243344,71.6131931
801,4 8th Hill,,Mantalongon,Philippines,PH,5608,10.2644903,123.5842054
802,63 Springs Alley,,Sekondi-Takoradi,Ghana,GH,,4.9536104,-1.7344155
803,69 Eagle Crest Park,,Duraznopampa,Peru,PE,,-6.5581455,-77.815285
804,4 Weeping Birch Circle,,Agago,Uganda,UG,,2.925082,33.3486147
805,922 American Alley,,Grecheskoye,Russia,RU,357247,44.421459,43.003708
806,441 Novick Court,,Jintan,China,CN,,31.723247,119.597896
807,997 Roxbury Alley,,Tajao,Philippines,PH,6039,10.2942407,123.5836143
808,8 Dapin Center,,Lipnica,Poland,PL,77-130,53.9956452,17.4069308
809,2606 Redwing Terrace,,Silveiros,Portugal,PT,4775-224,41.4655177,-8.577596
810,0228 Acker Crossing,,Pavlovskaya,Russia,RU,353147,47.2952721,39.8734276
811,5 Southridge Circle,,Nglengkir,Indonesia,ID,,-6.9175575,111.5140386
812,68165 Sutherland Circle,,Chengyang,China,CN,,36.307064,120.39631
813,1085 Jay Junction,,Huangchi,China,CN,,36.275231,113.310158
814,49 Truax Junction,,Hartola,Finland,FI,19601,61.5792581,26.0188652
815,1 Canary Trail,,Pasuruan,Indonesia,ID,,-7.6469193,112.8999225
816,88 Towne Point,,Pamiers,France,FR,09104 CEDEX,43.1162469,1.6196332
817,118 Loftsgordon Center,,Romorantin-Lanthenay,France,FR,41204 CEDEX,47.35802,1.75144
818,282 John Wall Lane,,San Felipe,Costa Rica,CR,11005,19.8022278,-98.7067059
819,35556 Forster Drive,,Ballyjamesduff,Ireland,IE,A84,53.8363325,-7.086877
820,05450 Talmadge Avenue,,Laohugang,China,CN,,23.528764,116.642424
821,10 Carioca Drive,,Petaling Jaya,Malaysia,MY,46547,3.108333,101.6419959
822,89 Troy Park,,Enjiang,China,CN,,32.187849,119.425836
823,740 Blackbird Point,,Sofia,Bulgaria,BG,1000,42.6978209,23.3245641
824,92 Union Center,,Shilovo,Russia,RU,396907,51.5534631,39.0929181
825,7 Old Gate Point,,Hongchun,China,CN,,30.0007026,117.9914358
826,3772 Hooker Crossing,,Sali,Croatia,HR,23281,43.9375282,15.162899
827,396 Butterfield Circle,,Fuhe,China,CN,,47.298877,132.09903
828,46 Northview Street,,Trinity,Saint Kitts and Nevis,KN,,17.295373,-62.767337
829,90132 Northwestern Junction,,Smętowo Graniczne,Poland,PL,83-230,53.7431909,18.6894607
830,54 Gale Road,,Auki,Solomon Islands,SB,,-8.7678593,160.6960306
831,8 Mayfield Street,,Tacuatí,Paraguay,PY,,-23.4595396,-56.7383988
832,5934 Graceland Place,,Guantou,China,CN,,26.131056,119.569323
833,22 Parkside Lane,,Ciseuseupan,Indonesia,ID,,-6.8618246,106.8606139
834,7 Gerald Lane,,Gangjia,China,CN,,42.016401,121.668489
835,4247 Sachtjen Avenue,,Strellc i Ulët,Kosovo,XK,,42.58063,20.31619
836,333 Nelson Circle,,Caicara,Venezuela,VE,,7.6128972,-66.1474752
837,4 Dovetail Trail,,Hultsfred,Sweden,SE,577 92,57.5334964,15.9897014
838,12 Sachtjen Road,,Qiaozi,China,CN,,40.290497,116.574067
839,34640 Kingsford Place,,Santa Cruz La Laguna,Guatemala,GT,7014,14.740281,-91.2062
840,8270 Sycamore Plaza,,Portela,Portugal,PT,4750-445,41.5660579,-8.5793664
841,379 Kings Place,,Kosum Phisai,Thailand,TH,44140,16.269546,103.035694
842,36 Prairie Rose Park,,Elaiochóri,Greece,GR,,40.8207633,24.2429692
843,2075 Gerald Pass,,El Espino,Panama,PA,,8.484387,-80.019341
844,58249 Dawn Pass,,Haninge,Sweden,SE,136 49,59.1930889,18.1475406
845,2 Onsgard Alley,,Lagny-sur-Marne,France,FR,77404 CEDEX,48.9097908,2.7104352
846,23 Manitowish Street,,Panshi,China,CN,,42.946285,126.060427
847,4 Sycamore Alley,,Dzüünbulag,Mongolia,MN,,47.1575927,115.3064094
848,747 Little Fleur Terrace,,Kuje,Nigeria,NG,,8.8763514,7.2437105
849,17205 Blue Bill Park Junction,,Bīrganj,Nepal,NP,,27.0449005,84.8672171
850,55726 Anthes Circle,,Nizui,China,CN,,42.280524,118.928688
851,40452 Clarendon Lane,,Subrag,China,CN,,44.2,118.46667
852,967 Straubel Trail,,Quanling,China,CN,,28.373163,116.079637
853,54235 Ohio Terrace,,Mogilany,Poland,PL,32-031,49.9478668,19.8866771
854,22683 Evergreen Alley,,Täby,Sweden,SE,183 15,59.4445121,18.071399
855,06 Bonner Park,,Dongzhang,China,CN,,31.699849,121.016122
856,345 Straubel Court,,Taphan Hin,Thailand,TH,66110,16.2093368,100.3722477
857,1108 Schmedeman Lane,,San Isidro,Argentina,AR,4124,-34.6821989,-58.3298681
858,4 Straubel Road,,Bangbayang,Indonesia,ID,,-6.8734228,107.074614
859,9916 Holmberg Hill,,Cleveland,United States,US,44185,42.3662435,-83.3270994
860,53955 Talmadge Terrace,,Lailunggi,Indonesia,ID,,-10.1379744,120.1069594
861,4 Kipling Terrace,,Ojiya,Japan,JP,959-2612,38.0953349,139.419061
862,3956 Anderson Junction,,Bolo,Philippines,PH,4712,18.5344284,120.7961471
863,91 Barnett Way,,Chum Phuang,Thailand,TH,30270,15.2679414,102.8514837
864,87998 Maple Wood Pass,,Xin’an,China,CN,,34.728584,112.132488
865,87 Warrior Plaza,,L'viv,Ukraine,UA,,49.839683,24.029717
866,03 Mallard Hill,,Lamatuka,Indonesia,ID,,-8.3724396,123.4887939
867,90069 Hoepker Lane,,Menzel Jemil,Tunisia,TN,,37.2083179,9.9576849
868,6 Bultman Circle,,Gongping,China,CN,,29.265836,103.552514
869,614 Mockingbird Drive,,Nong Chik,Thailand,TH,94170,6.8117856,101.1843887
870,6 Butterfield Street,,Bagusan,Indonesia,ID,,-7.3817792,110.2042913
871,786 Meadow Valley Street,,Haugesund,Norway,NO,5518,59.4388399,5.3184101
872,94200 Stoughton Parkway,,Bindura,Zimbabwe,ZW,,-17.3013059,31.3198491
873,58710 Green Avenue,,Santa Cristina Couto,Portugal,PT,4780-166,41.3258441,-8.4786662
874,6 Clemons Street,,Foumbot,Cameroon,CM,,5.5028937,10.6365483
875,94 Moland Point,,Taldan,Russia,RU,676009,53.6934353,124.8109085
876,45 Bonner Parkway,,Buôn Trấp,Vietnam,VN,,12.4866658,108.042083
877,4049 West Park,,Banyo,Cameroon,CM,,6.7496639,11.8036596
878,70341 Sycamore Circle,,Oster,Ukraine,UA,,50.9486162,30.8786768
879,56379 Carberry Trail,,Žiželice,Czech Republic,CZ,438 01,50.3674128,13.5400012
880,611 Canary Point,,Songkar B,Indonesia,ID,,-8.47089,117.4996816
881,36 Menomonie Alley,,Ōkawara,Japan,JP,989-1323,35.5588061,138.0410863
882,2 Fulton Road,,Tangcun,China,CN,,35.32608,116.948961
883,0683 Old Shore Avenue,,Rizal,Philippines,PH,7104,14.5665378,121.1092186
884,21 Stephen Center,,Feira de Santana,Brazil,BR,44000-000,-12.2597272,-38.9646608
885,46 Superior Point,,Puerto Obaldía,Panama,PA,,8.6663907,-77.420826
886,80 Bluestem Point,,Kapotnya,Russia,RU,140093,55.6411722,37.8060214
887,7 Scofield Point,,Palestina,Philippines,PH,6037,15.7832452,121.0086436
888,3 Knutson Road,,Hekou,China,CN,,22.529403,103.93935
889,2 Bellgrove Way,,Vyaz’ma,Russia,RU,215119,55.2443128,34.3716169
890,5535 Towne Alley,,Kapyl’,Belarus,BY,,53.1511461,27.0908004
891,42 Pennsylvania Way,,Banjar Peguyangan,Indonesia,ID,,-8.2104974,114.9671388
892,90051 Longview Way,,Miaoquan,China,CN,,34.7390267,118.4065758
893,39 Union Center,,Malakhovka,Russia,RU,391846,55.6427846,38.008554
894,42 Sherman Crossing,,Nová Cerekev,Czech Republic,CZ,394 15,49.4227567,15.1059917
895,8 Sage Plaza,,Maghār,Israel,IL,,32.890704,35.40461
896,6148 Ilene Drive,,Hidalgo,Mexico,MX,30625,20.0910963,-98.7623874
897,69610 Larry Junction,,Tingsryd,Sweden,SE,362 23,56.2960315,14.8591964
898,8 Mitchell Terrace,,Telsen,Argentina,AR,9121,-43.2643313,-65.3506508
899,35707 Barnett Court,,Bierawa,Poland,PL,47-240,50.282951,18.2785364
900,4959 Chinook Road,,Lazdijai,Lithuania,LT,67001,54.305019,23.747034
901,32 Ridgeview Junction,,Qiewa,China,CN,,32.650887,101.505519
902,0183 Brentwood Circle,,Azul,Argentina,AR,7300,-34.7796334,-58.6040349
903,3689 Straubel Parkway,,Lázně Kynžvart,Czech Republic,CZ,354 91,50.0105928,12.624753
904,12 Roxbury Park,,Omsk,Russia,RU,644000,55.0614182,73.2498639
905,7645 Eggendart Parkway,,Sumberan,Indonesia,ID,,-6.898384,111.885002
906,21718 Esker Crossing,,Oslo,Norway,NO,654,59.9135958,10.7792426
907,5693 Russell Plaza,,Nīkshahr,Iran,IR,,26.2350988,60.2284437
908,515 Moulton Point,,Kamo,Japan,JP,997-1204,38.7607275,139.7347818
909,26647 Hansons Point,,Pidsandawan,Philippines,PH,921,6.926774,124.4974442
910,7511 Butternut Crossing,,Katagum,Nigeria,NG,,12.289736,10.3525964
911,833 Londonderry Place,,Pushkino,Russia,RU,413220,51.2291266,46.9776352
912,82062 2nd Drive,,Towa,China,CN,,28.003553,96.657898
913,15 Stang Terrace,,Giồng Trôm,Vietnam,VN,,10.1718844,106.4641459
914,13662 5th Alley,,Tchoban Bey,Syria,SY,,36.61667,37.45
915,287 Hansons Plaza,,Nantang,China,CN,,22.058407,110.792856
916,547 Sycamore Hill,,Isakly,Russia,RU,446587,54.134434,51.5316589
917,3 Mitchell Street,,Tivat,Montenegro,ME,,42.4349809,18.7066398
918,12779 Debs Junction,,Traganón,Greece,GR,,37.8978165,21.3138403
919,70 Comanche Crossing,,Skellefteå,Sweden,SE,931 22,64.7605411,20.9709123
920,9 Swallow Trail,,Xinzhuang,China,CN,,31.121239,121.370354
921,5849 Weeping Birch Parkway,,Xiangang,China,CN,,23.04421,112.677965
922,2 Shoshone Center,,Pavshino,Russia,RU,416102,55.8182515,37.3477667
923,00474 Declaration Terrace,,Yong’an,China,CN,,25.941937,117.365052
924,2022 Duke Park,,Gayam,Indonesia,ID,,-5.7577862,105.6984455
925,8761 Porter Circle,,Dunkerque,France,FR,59640,51.0149751,2.343224
926,0 Texas Alley,,Solor,Indonesia,ID,,-10.1585855,123.5818992
927,4071 Sherman Center,,Rāmsar,Iran,IR,,36.9268274,50.6430658
928,71 Burning Wood Plaza,,Cuenca,Ecuador,EC,,-2.9001285,-79.0058965
929,763 Caliangt Parkway,,Baitashan,China,CN,,25.112046,99.161761
930,77453 Menomonie Plaza,,Saparbay,China,CN,,40.91889,78.72278
931,7 8th Drive,,Liujiachang,China,CN,,33.2934023,119.282264
932,09 Cherokee Lane,,Yingzhou,China,CN,,32.883468,115.806942
933,20 Esch Center,,Ringinrejo,Indonesia,ID,,-7.9794517,112.0416754
934,67 Dorton Trail,,Yilan,Taiwan,TW,,24.7021073,121.7377502
935,96349 Kensington Point,,Las Parejas,Argentina,AR,2505,-34.5872079,-58.494505
936,714 Eagan Parkway,,Tongda,China,CN,,22.280318,114.17162
937,7 Aberg Street,,Venda,Portugal,PT,4715-529,41.5788457,-8.3539235
938,03 Brickson Park Hill,,Magisterial,Mexico,MX,32350,19.2949759,-99.110685
939,6028 Monterey Court,,Jabon,Indonesia,ID,,-7.5590563,112.7509656
940,02 Roxbury Court,,Baitoa,Dominican Republic,DO,10508,19.309169,-70.6977162
941,20090 Dunning Circle,,Dangjiaxian,China,CN,,34.949137,104.470279
942,52 Donald Alley,,Carlsbad,United States,US,92013,33.1,-117.28
943,9059 Tomscot Terrace,,Norrtälje,Sweden,SE,761 51,59.7591608,18.6810496
944,62356 Havey Road,,Eláteia,Greece,GR,,38.6276904,22.7650721
945,15669 Clarendon Way,,Gwangtan,South Korea,KR,,34.9406968,127.6958882
946,10 Laurel Place,,Junín,Argentina,AR,5281,-32.9271629,-60.6962267
947,2589 Buena Vista Way,,Västra Frölunda,Sweden,SE,421 46,57.6581105,11.9042745
948,651 Holy Cross Parkway,,Al ‘Awjah,Iraq,IQ,,34.5235452,43.7190392
949,210 Stuart Park,,Infonavit,Mexico,MX,79960,19.307033,-99.1675842
950,173 Upham Crossing,,Jambubol,Indonesia,ID,,-5.0898252,105.3241245
951,7 Farwell Lane,,Weekombaka,Indonesia,ID,,-9.4852898,119.1736353
952,490 Mockingbird Plaza,,Cisoka,Indonesia,ID,,-6.2614858,106.4052541
953,62 Duke Alley,,Kamenka,Russia,RU,241011,55.9840531,37.1619979
954,0 Starling Lane,,Stanisław Górny,Poland,PL,34-103,49.8922979,19.621588
955,59 La Follette Point,,Telukpakedai,Indonesia,ID,,-0.3052095,109.1463836
956,87 Dennis Alley,,Tulay na Lupa,Philippines,PH,4612,14.1313261,122.8277624
957,640 Hoard Road,,Leiria,Portugal,PT,2400-013,39.7191273,-8.852352
958,9 Division Plaza,,Nart,Mongolia,MN,,47.9195813,106.9211984
959,2 Scofield Terrace,,Dalmacio Vélez Sársfield,Argentina,AR,5919,-34.6531982,-58.5988688
960,0 Granby Crossing,,Saguiaran,Philippines,PH,9701,8.039166,124.268625
961,036 Annamark Parkway,,Lubukgadang,Indonesia,ID,,-1.5105199,101.2750531
962,417 Atwood Circle,,Tingqian,China,CN,,28.1562239,113.6293358
963,7 Badeau Parkway,,Panguna,Papua New Guinea,PG,,-6.308009,155.477221
964,594 Mendota Lane,,Callao,Peru,PE,,-12.0508491,-77.1259843
965,3501 Jenifer Road,,Huaqiao,China,CN,,24.9372186,118.6422409
966,4 Redwing Pass,,Lop,China,CN,,40.5,90.5
967,304 Sheridan Street,,Madīnat Lab‘ūs,Yemen,YE,,13.86667,45.25
968,3 Stuart Circle,,Shidu,China,CN,,39.639844,115.58934
969,9 Dapin Junction,,Hedao,China,CN,,28.1459758,112.9889132
970,19 Pine View Pass,,Goz Béïda,Chad,TD,,12.225759,21.4126837
971,5 7th Lane,,Knivsta,Sweden,SE,741 72,59.7448493,17.8041667
972,2077 Garrison Terrace,,Pulaukijang,Indonesia,ID,,-0.7241012,103.2086442
973,47837 Lunder Street,,Krajan Rowokangkung,Indonesia,ID,,-8.2307484,113.2998705
974,53238 Jenna Place,,Dazhou,China,CN,,31.209571,107.468023
975,67 Elgar Avenue,,Hobo,Philippines,PH,1150,13.5085076,123.1804731
976,858 Norway Maple Plaza,,Fort Smith,United States,US,72905,35.3756077,-94.4313928
977,676 Reinke Place,,Gongjiang,China,CN,,31.032243,121.227747
978,77164 Cardinal Circle,,Boroon,Philippines,PH,9201,14.3586387,120.9332234
979,35 Loomis Terrace,,Goyang-si,South Korea,KR,,37.6583599,126.8320201
980,49 Forster Alley,,Paobulan,Indonesia,ID,,-6.9967,112.8419
981,7 Di Loreto Court,,Tuquan,China,CN,,45.38193,121.593799
982,3 Maryland Trail,,Banjar Lalangpasek,Indonesia,ID,,-8.5985,115.1455
983,79 Arkansas Way,,Waldbredimus,Luxembourg,LU,L-5465,49.5562052,6.2862731
984,61970 Mallory Avenue,,Pho Thong,Thailand,TH,14120,14.6823992,100.3722477
985,03 Village Green Alley,,Paratinga,Brazil,BR,47500-000,-12.5896471,-43.0971625
986,4922 8th Avenue,,Télimélé,Guinea,GN,,10.9089364,-13.0299331
987,33 South Trail,,Paucar,Peru,PE,,-6.9970846,-76.1660561
988,88 Union Terrace,,Velký Týnec,Czech Republic,CZ,783 72,49.5519718,17.3375604
989,89 Mcguire Junction,,Kōnosu,Japan,JP,369-0137,36.0932201,139.4440586
990,2091 Union Park,,Bloemhof,South Africa,ZA,2662,-27.641736,25.5710689
991,1 Mockingbird Hill,,Owerri,Nigeria,NG,,5.489059,7.0175879
992,46 La Follette Avenue,,Ostankinskiy,Russia,RU,901993,55.813957,37.626119
993,35 Burrows Avenue,,Cheongpyeong,South Korea,KR,,37.7404063,127.4241436
994,273 Mayer Junction,,Błędów,Poland,PL,05-620,51.7774845,20.6971747
995,932 Redwing Crossing,,Bolekhiv,Ukraine,UA,,49.0702518,23.8543141
996,7 Florence Plaza,,Oyskhara,Russia,RU,366218,43.2608797,46.2407529
997,68558 Cordelia Lane,,Pura,Philippines,PH,2312,15.590487,120.6380367
998,064 Surrey Center,,Pangushan,China,CN,,25.639488,115.432374
999,63574 Hooker Junction,,Poshekhon’ye,Russia,RU,152850,58.5007075,39.1422317
1000,98944 Reindahl Avenue,,Abovyan,Armenia,AM,,40.2715286,44.633383
1001,6 South Terrace,,Dusun Desa Bunter,Indonesia,ID,,-7.2906502,108.4691492
1002,34 Merrick Trail,,Pitrufquén,Chile,CL,,-38.9833,-72.6417312
1003,013 Spaight Pass,,Hacı Zeynalabdin,Azerbaijan,AZ,,40.4422219,49.7584523
1004,3237 Hayes Circle,,São Marcos,Brazil,BR,95190-000,-28.9481925,-51.0749483
1005,5 Gina Alley,,Salamnunggal,Indonesia,ID,,-7.1045439,107.8961537
1006,1524 Charing Cross Terrace,,Pulupandan,Philippines,PH,6102,10.527138,122.813931
1007,012 7th Road,,Saumur,France,FR,49417 CEDEX,47.2305176,-0.071593
1008,8 Farwell Court,,Wangdian,China,CN,,33.273148,115.676125
1009,508 Cordelia Crossing,,Kupusina,Serbia,RS,,45.7376939,19.0070982
1010,827 Corscot Hill,,Karamat,Indonesia,ID,,-6.7345601,108.2777899
1011,6509 Garrison Alley,,Duyure,Honduras,HN,,13.634726,-86.8107363
1012,2173 Elmside Park,,Garland,United States,US,75049,32.8565219,-96.6038258
1013,66113 Lake View Road,,Chiscas,Colombia,CO,151407,6.552741,-72.5003179
1014,139 Marcy Center,,Murun-kuren,Mongolia,MN,,49.63417,100.1625
1015,851 Clemons Lane,,Houxiang,China,CN,,31.936876,112.662673
1016,821 Grasskamp Drive,,Aguisan,Philippines,PH,4101,10.1765144,122.890937
1017,876 La Follette Alley,,Pirapozinho,Brazil,BR,19200-000,-22.2756953,-51.5002318
1018,5733 Milwaukee Drive,,Chenxiang,China,CN,,22.669716,114.026395
1019,98226 Marquette Hill,,Cagnes-sur-Mer,France,FR,06804 CEDEX,43.6777677,7.1492431
1020,6764 Russell Circle,,Olavarría,Argentina,AR,7400,-34.4489078,-58.7992473
1021,2 Coolidge Lane,,Sepolong Timur,Indonesia,ID,,-8.6020564,116.435616
1022,58480 Eagan Circle,,Dupnitsa,Bulgaria,BG,2680,42.2497494,23.0548108
1023,255 Golf View Lane,,Andong,South Korea,KR,,36.5683543,128.729357
1024,1 Fordem Court,,Ampelókipoi,Greece,GR,,40.6536074,22.9223719
1025,0 Green Center,,Chybie,Poland,PL,43-520,49.8958515,18.8188681
1026,52079 Summer Ridge Trail,,Bijelo Polje,Montenegro,ME,,43.0369422,19.7561911
1027,06582 Corben Street,,Sosnovoborsk,Russia,RU,442591,53.3412978,46.2520423
1028,0 Claremont Parkway,,Vihti,Finland,FI,3400,60.4165735,24.3256379
1029,308 Corscot Terrace,,Puyung,Indonesia,ID,,-8.6899169,116.2393209
1030,61 Lakewood Gardens Road,,Dungang,China,CN,,40.142128,94.661966
1031,51 Dawn Junction,,Changling,China,CN,,44.275895,123.9674831
1032,59481 Bartillon Parkway,,Santa Cecilia,Mexico,MX,48744,20.7257009,-103.4082453
1033,8470 Sage Pass,,Uppsala,Sweden,SE,753 09,59.8505671,17.6418492
1034,64 Rowland Pass,,Loen,Marshall Islands,MH,96970,40.752984,-73.9145038
1035,37 Raven Way,,Doloplazy,Czech Republic,CZ,783 56,49.5671764,17.4114814
1036,15 Linden Lane,,Shuihu,China,CN,,32.477849,117.16587
1037,986 Main Park,,Satita,Syria,SY,,34.8190348,36.1192307
1038,359 Kedzie Alley,,Yinjiaxi,China,CN,,29.135219,110.4185
1039,78373 Sloan Plaza,,Urungpigang,Indonesia,ID,,-8.6034763,122.1873269
1040,559 Hoepker Junction,,Ussel,France,FR,19204 CEDEX,44.8870215,3.883654
1041,30861 Morningstar Court,,Kítsi,Greece,GR,,37.8519345,23.8408158
1042,435 Sachs Lane,,Gojō,Japan,JP,648-0002,34.3507417,135.6964987
1043,7304 Clemons Alley,,Buy,Russia,RU,157008,58.4705978,41.5474702
1044,6 Stang Road,,Imsida,Malta,MT,ZTN,35.8925,14.48278
1045,303 Bluejay Terrace,,Jatirejo,Indonesia,ID,,-7.617735,112.4172256
1046,6619 Chinook Lane,,Perdões,Brazil,BR,37260-000,-21.0794915,-45.0933497
1047,23353 Hanover Junction,,Zeqin,China,CN,,25.84122,116.023145
1048,6 Glacier Hill Point,,Magdug,Philippines,PH,7300,6.5400402,126.084947
1049,00418 Meadow Valley Terrace,,San Isidro,Mexico,MX,35156,25.566821,-103.4295033
1050,97 Maryland Trail,,Jishi,China,CN,,31.2028365,121.4379074
1051,5 Oakridge Avenue,,Dulce Nombre de Culmí,Honduras,HN,,15.0796303,-85.5586368
1052,9789 Oak Valley Crossing,,Salantai,Lithuania,LT,97035,56.0586318,21.5677773
1053,55 Onsgard Place,,Ping’an,China,CN,,47.247125,127.1219196
1054,82206 Corben Drive,,Debrecen,Hungary,HU,4029,47.5341107,21.6379372
1055,60 Kipling Road,,Wassa-Akropong,Ghana,GH,,5.77232,-2.091848
1056,037 Sommers Trail,,Fankeng,China,CN,,27.300683,119.727073
1057,437 Manufacturers Crossing,,Liuhe,China,CN,,42.284605,125.744735
1058,94 Sommers Junction,,Shicong,China,CN,,30.720497,120.26727
1059,87 Lunder Avenue,,Kopong,Botswana,BW,,-24.4770763,25.8906212
1060,27855 Forest Run Pass,,Sidokumpul,Indonesia,ID,,-7.4516994,112.7159574
1061,23420 Kim Trail,,Choszczno,Poland,PL,73-201,53.1675674,15.4377229
1062,633 Gerald Park,,Tanggulangin,Indonesia,ID,,-7.5145399,112.7330892
1063,9 Mallory Alley,,Kota Kinabalu,Malaysia,MY,88540,5.9840985,116.0761121
1064,40127 Comanche Parkway,,New Plymouth,New Zealand,NZ,4342,-39.0593613,174.0768108
1065,67 Claremont Terrace,,Třemošnice,Czech Republic,CZ,538 43,49.8691189,15.5800287
1066,59 Daystar Lane,,Khirbat Tīn Nūr,Syria,SY,,34.70044,36.55641
1067,5264 Marcy Crossing,,Jinqu,China,CN,,34.208655,107.788999
1068,3 Orin Parkway,,Vårby,Sweden,SE,143 42,59.2669111,17.8885705
1069,47 Autumn Leaf Drive,,Magadan,Russia,RU,685000,59.5611525,150.8301413
1070,485 Merrick Center,,Nan’ao,China,CN,,23.421724,117.023373
1071,20 Hayes Hill,,Padova,Italy,IT,35141,45.402837,11.8577064
1072,573 Anderson Circle,,Spartanburg,United States,US,29305,34.9378859,-81.9021301
1073,177 Jenna Plaza,,Supu,China,CN,,26.990979,106.342164
1074,622 Larry Circle,,Dolní Černilov,Czech Republic,CZ,503 03,50.2616437,15.9613245
1075,77230 Sauthoff Pass,,Leskovac,Serbia,RS,,42.9963758,21.944034
1076,3 Lillian Court,,Antigonish,Canada,CA,B2G,45.6243985,-62.002631
1077,14758 Merry Place,,Boquira,Brazil,BR,46530-000,-12.7959196,-42.7857583
1078,43 Ruskin Park,,Misawa,Japan,JP,992-1202,37.8806901,140.1356792
1079,94843 6th Pass,,Obo,Central African Republic,CF,,5.3956496,26.4916731
1080,8 Memorial Crossing,,Auxerre,France,FR,89024 CEDEX,47.794456,3.5751746
1081,82 Golf View Parkway,,Kombandaru,Indonesia,ID,,-8.7876456,121.6029824
1082,3 Vernon Avenue,,Santa Bárbara,Guatemala,GT,13010,15.3178606,-91.6317765
1083,77536 Bonner Road,,Revelstoke,Canada,CA,H9K,50.98317,-118.2023
1084,1715 Buhler Point,,Cipicung,Indonesia,ID,,-6.9375866,108.5522531
1085,386 Logan Alley,,Siyang,China,CN,,33.722478,118.703424
1086,9857 Trailsway Crossing,,Shuanghekou,China,CN,,30.975286,105.190522
1087,7 Green Alley,,El Cardo,Peru,PE,,-5.85,-79.8833329
1088,306 Marcy Parkway,,Algueirão,Portugal,PT,2725-007,38.8053198,-9.353007
1089,772 Tennessee Crossing,,Farah,Afghanistan,AF,,32.4464635,62.1454133
1090,28672 Scoville Center,,Smętowo Graniczne,Poland,PL,83-230,53.7431909,18.6894607
1091,6 3rd Avenue,,Stari Grad,Serbia,RS,,44.8184554,20.4643411
1092,5 Dorton Lane,,Bořetice,Czech Republic,CZ,691 08,48.9154732,16.8550346
1093,081 Thackeray Lane,,Fezna,Morocco,MA,,31.533333,-4.466667
1094,810 South Way,,Shuangjing,China,CN,,39.896995,116.46662
1095,2679 Talisman Lane,,Dnipryany,Ukraine,UA,,46.7523145,33.2473218
1096,990 2nd Plaza,,Gorskaya,Russia,RU,197755,60.0409397,29.9879347
1097,753 Anzinger Pass,,Bachowice,Poland,PL,34-116,49.8458727,19.6201067
1098,8 Merry Way,,Tiztoutine,Morocco,MA,,34.9815148,-3.1528692
1099,6466 Lindbergh Circle,,Libato,Philippines,PH,9319,13.8303,121.401
1100,09 Mockingbird Terrace,,Kireyevsk,Russia,RU,301260,53.923995,37.9565339
1101,387 Rutledge Way,,Tsybulevka,Ukraine,UA,,47.4047584,29.1057554
1102,0070 Forest Dale Park,,Xingzi,China,CN,,29.448128,116.04506
1103,2 Warner Road,,Sedan,France,FR,08209 CEDEX,49.7052493,4.9404055
1104,5833 Sunbrook Alley,,Blendis,Indonesia,ID,,-8.0545403,111.8268458
1105,93893 High Crossing Place,,Yuanling,China,CN,,28.452686,110.393844
1106,48 Lien Lane,,Sebu,Philippines,PH,9009,10.2020988,123.7530831
1107,763 Maple Wood Court,,Bagombong,Philippines,PH,5105,14.7793575,121.0489884
1108,24 Buena Vista Drive,,Pavshino,Russia,RU,416102,55.8182515,37.3477667
1109,6 Michigan Center,,Sakété,Benin,BJ,,6.7368274,2.6636066
1110,66823 Monterey Way,,Jiupu,China,CN,,25.748008,104.518068
1111,32 Stoughton Court,,Soweto,South Africa,ZA,1809,-26.2652787,27.9073244
1112,92 Bay Avenue,,Tougan,Burkina Faso,BF,,13.0695031,-3.0626284
1113,46939 Tony Point,,Tonggoh,Indonesia,ID,,-6.8132152,108.5919461
1114,19 Kropf Crossing,,Cianorte,Brazil,BR,87200-000,-23.701721,-52.6600232
1115,8 Redwing Place,,Caçapava,Brazil,BR,12280-000,-23.0939881,-45.6964547
1116,070 Lakewood Gardens Drive,,Khartsyz’k,Ukraine,UA,,48.043204,38.1393965
1117,634 Bonner Circle,,Salam,Indonesia,ID,,-7.6247732,110.2951364
1118,846 Dorton Way,,Zheleznogorsk-Ilimskiy,Russia,RU,665654,56.6175886,104.1948978
1119,96 Muir Park,,Sabunçu,Azerbaijan,AZ,,40.4520266,49.9324113
1120,91 Fairfield Crossing,,København,Denmark,DK,1608,55.6760366,12.5657728
1121,3 Prentice Parkway,,Kentongan,Indonesia,ID,,-8.6854551,115.2623991
1122,700 Petterle Circle,,Yanfolila,Mali,ML,,11.1780136,-8.1529749
1123,675 Cambridge Crossing,,Zoumachang,China,CN,,27.87132,105.20105
1124,30667 Warrior Way,,Kashima,Japan,JP,927-0038,37.1845893,136.9002781
1125,2961 Springview Way,,Serhetabat,Turkmenistan,TM,,35.275142,62.3271815
1126,550 Bultman Pass,,Nýřany,Czech Republic,CZ,330 23,49.7127158,13.2046047
1127,61187 Namekagon Point,,Longkali,Indonesia,ID,,-1.2607218,116.1832068
1128,1459 Cardinal Crossing,,Brumadinho,Brazil,BR,35460-000,-20.1514708,-44.2010909
1129,536 Pierstorff Park,,Buldon,Philippines,PH,9615,7.4700493,124.3789673
1130,58 Lawn Plaza,,Wola Jachowa,Poland,PL,01-943,50.8426863,20.8627188
1131,21896 Veith Point,,Wichit,Thailand,TH,83120,7.9047781,98.3512841
1132,99 Algoma Parkway,,Ait Ali,Algeria,DZ,15103,36.569805,4.448361
1133,799 Karstens Pass,,Goryachevodskiy,Russia,RU,357560,44.028793,43.1146215
1134,0 Scott Place,,Nkhotakota,Malawi,MW,,-12.9316863,34.2810541
1135,80678 Lake View Park,,Aizhai,China,CN,,28.3285373,109.6029048
1136,072 Havey Way,,Wenfu,China,CN,,26.463923,107.905837
1137,3 Mallory Crossing,,Derbent,Russia,RU,368608,42.0813751,48.2792467
1138,6 Maywood Parkway,,Santa Maria,Brazil,BR,97000-000,-29.68725,-53.8154499
1139,22173 Kennedy Court,,Iperó,Brazil,BR,18560-000,-23.351784,-47.6931718
1140,4394 Green Ridge Terrace,,Copa,Peru,PE,,-10.37092,-77.492203
1141,6949 Gateway Way,,Linan,Philippines,PH,1105,11.4297007,122.5987302
1142,676 Merrick Place,,Caracal,Philippines,PH,7114,8.12722,122.845
1143,00314 Lighthouse Bay Plaza,,Vlachovice,Czech Republic,CZ,592 31,49.5970348,16.041166
1144,8 Upham Alley,,Toyoshina,Japan,JP,399-8205,36.3006568,137.9047429
1145,63 Talisman Circle,,Regnów,Poland,PL,96-232,51.7480675,20.3872239
1146,25 Anniversary Park,,Greensboro,United States,US,27415,36.09,-79.78
1147,12208 Dakota Park,,Xiejia,China,CN,,44.441584,126.4510829
1148,2 Lien Trail,,Vanves,France,FR,92179 CEDEX,48.8120404,2.2718631
1149,01 Di Loreto Lane,,Pondokdalem,Indonesia,ID,,-8.1252687,113.4329607
1150,25201 Farmco Center,,Muḩammad Āghah Wuluswālī,Afghanistan,AF,,34.21422,69.10026
1151,9 Del Mar Hill,,Loivos,Portugal,PT,5425-055,41.6262043,-7.5092352
1152,12174 Stoughton Junction,,Rzeczenica,Poland,PL,77-304,53.7577169,17.1077021
1153,02 Farwell Lane,,Tiebiancheng,China,CN,,36.990268,107.853926
1154,17990 Truax Point,,San Jerónimo,Honduras,HN,,14.6276215,-87.6075294
1155,4 Coleman Terrace,,Hufeng,China,CN,,29.710994,106.118868
1156,1 Arrowood Court,,Kastsyukovichy,Belarus,BY,,53.3449659,32.0532332
1157,310 Service Point,,Bratislava,Slovakia,SK,841 01,48.1875683,17.0216706
1158,36 Namekagon Drive,,Hrastnik,Slovenia,SI,1430,46.1417288,15.0844894
1159,09 Cottonwood Junction,,Miramar,Argentina,AR,5143,-34.3714108,-58.875663
1160,0 Sutteridge Drive,,San Francisco de la Paz,Honduras,HN,,14.8751623,-86.1828047
1161,43 Pierstorff Parkway,,Cam Lộ,Vietnam,VN,,16.783695,106.9830865
1162,76 Troy Trail,,Ciwaru,Indonesia,ID,,-7.0808057,108.6264694
1163,79613 Farragut Place,,Drosiá,Greece,GR,,38.119756,23.8661305
1164,7875 Scoville Plaza,,Žabčice,Czech Republic,CZ,664 63,49.0054448,16.598735
1165,028 Buhler Pass,,Bogra,Bangladesh,BD,4520,24.8435589,89.3701078
1166,50 Anhalt Point,,Marseille,France,FR,13393 CEDEX 13,43.7441795,2.511999
1167,7137 Hallows Alley,,Krajan,Indonesia,ID,,-7.5450262,111.6556388
1168,2 Thompson Alley,,Telbang,Philippines,PH,6328,15.79903,120.4542479
1169,542 Spohn Terrace,,Postmasburg,South Africa,ZA,8445,-28.34028,23.08194
1170,56 Lakewood Gardens Road,,Tysmenychany,Ukraine,UA,,48.7687947,24.6658752
1171,15 Tennyson Park,,Banjar Wates Tengah,Indonesia,ID,,-8.4484,115.5011
1172,35 Corscot Road,,Opol,Philippines,PH,9016,8.5213374,124.5736702
1173,1 Pond Center,,Lubāna,Latvia,LV,,56.8999269,26.7198789
1174,77 Bay Court,,Sørvágur,Faroe Islands,FO,380,62.0672192,-7.3009701
1175,94077 Fairfield Pass,,Tacurong,Philippines,PH,9800,6.6875376,124.6769673
1176,461 Saint Paul Plaza,,Bayan Bulag,China,CN,,45.0152528,98.9366407
1177,5 Johnson Plaza,,Shiree,Mongolia,MN,,45.85,103.4
1178,7872 Pearson Court,,Gongrong,China,CN,,23.3790333,113.7632828
1179,62 Briar Crest Terrace,,Faqqū‘ah,Palestinian Territory,PS,,32.48998,35.40163
1180,33471 Longview Junction,,Torre do Pinhão,Portugal,PT,5060-569,41.3743894,-7.6099869
1181,0571 Huxley Point,,Kutamandarakan,Indonesia,ID,,-7.0258984,108.5567057
1182,208 Kropf Point,,Orita Eruwa,Nigeria,NG,,7.55,3.43333
1183,8989 Spenser Lane,,Langob,Philippines,PH,6010,10.3307399,123.8822107
1184,63 Thompson Point,,Acarigua,Venezuela,VE,,9.5503646,-69.1804708
1185,33 Lerdahl Place,,Danxi,China,CN,,28.229271,120.997332
1186,8 Stoughton Place,,Ojos de Agua,Honduras,HN,,14.6060279,-87.940833
1187,5 Sherman Avenue,,Jargalant,Mongolia,MN,,48.7277622,100.7724281
1188,45 Old Gate Lane,,São Pedro Gafanhoeira,Portugal,PT,7040-524,38.7433547,-8.0759339
1189,8934 Hovde Court,,Richmond,United States,US,23277,37.9414132,-77.3472943
1190,63746 Glacier Hill Trail,,Ipoh,Malaysia,MY,30506,4.6096768,101.1064003
1191,1379 Clemons Plaza,,Esquina,Argentina,AR,5131,-34.6161437,-58.5238406
1192,598 Manley Pass,,Agua Blanca,Guatemala,GT,22004,14.4990116,-89.6526107
1193,11499 Sugar Crossing,,Torrevieja,Spain,ES,3184,38.0294026,-0.6867939
1194,00 Melrose Drive,,Sarandi,Brazil,BR,99560-000,-27.946449,-52.9164069
1195,99905 Sachtjen Center,,Aix-en-Provence,France,FR,13858 CEDEX 3,43.4931556,5.3698187
1196,34061 Packers Center,,Taoxi,China,CN,,51.561779,7.1090932
1197,8 American Alley,,Umeå,Sweden,SE,901 86,63.827461,20.2599325
1198,33 Sage Road,,Las Lomas,Panama,PA,,8.4430125,-82.3777335
1199,57 Green Ridge Lane,,Kālābāgh,Pakistan,PK,42360,32.9005808,71.4599651
1200,2898 6th Drive,,Tongjin,South Korea,KR,,37.6917333,126.597295
1201,196 Nova Place,,Sobue,Japan,JP,503-1305,35.3226984,136.5846498
1202,78089 Armistice Alley,,Caihua,China,CN,,31.298877,121.395941
1203,3 Anzinger Junction,,Skarżysko-Kamienna,Poland,PL,26-113,51.0994419,20.764923
1204,717 Bashford Court,,Indramayu,Indonesia,ID,,-6.33731,108.3258329
1205,30 Butterfield Way,,Slantsy,Russia,RU,188565,59.1511208,28.0935735
1206,212 Hayes Junction,,Pengandonan,Indonesia,ID,,-4.1383821,103.9724141
1207,2470 Kings Alley,,Baorixile,China,CN,,49.348096,119.7942301
1208,975 Lindbergh Park,,Paris 09,France,FR,75318 CEDEX 09,43.4945737,5.8978018
1209,8 Lillian Junction,,Washington,United States,US,20057,38.9079399,-77.0717165
1210,11377 Ryan Center,,Benghazi,Libya,LY,,32.0947711,20.1879106
1211,2 Troy Point,,Tucdao,Philippines,PH,6547,11.6786404,124.4087296
1212,53007 Ridgeway Crossing,,Wanghu,China,CN,,30.661419,116.244678
1213,7690 Almo Parkway,,Toupopu,Indonesia,ID,,-9.7028,119.4717
1214,16727 Beilfuss Pass,,Kwidzyn,Poland,PL,82-505,53.7074084,18.9597308
1215,30 Summit Point,,Yanjiang,China,CN,,30.108216,104.677091
1216,5 7th Park,,Malanday,Philippines,PH,1805,14.648875,121.095063
1217,275 Carey Point,,Nunhala,Indonesia,ID,,-9.6218,124.4923
1218,35001 Gerald Parkway,,Tuchów,Poland,PL,33-170,49.89477,21.05416
1219,258 Green Ridge Street,,Youngstown,United States,US,44511,41.0699247,-80.6937177
1220,80 Mayfield Center,,Bizhou,China,CN,,31.298974,120.585289
1221,5 Summerview Center,,Helsingborg,Sweden,SE,251 87,56.0463429,12.7045118
1222,2 Morrow Center,,Iperó,Brazil,BR,18560-000,-23.351784,-47.6931718
1223,4410 Randy Road,,Xinzhuang,China,CN,,31.121239,121.370354
1224,64929 Blue Bill Park Circle,,Lemery,Philippines,PH,5043,14.5665991,121.0022623
1225,5476 Gulseth Center,,Yanacancha,Peru,PE,,-12.2,-75.416667
1226,0888 Fuller Center,,Stari Banovci,Serbia,RS,,44.9878037,20.2567012
1227,79 Dahle Hill,,Chengdong,China,CN,,36.599744,101.803717
1228,64 Waxwing Court,,Budapest,Hungary,HU,1035,47.545979,19.0375319
1229,90 Cherokee Trail,,Mayong,China,CN,,23.0604451,113.5883876
1230,4181 Sachtjen Avenue,,Lille,France,FR,59865 CEDEX 9,44.1675867,2.0308233
1231,0 Dawn Circle,,Jilin,China,CN,,43.1520105,126.4371385
1232,37 David Park,,Stockholm,Sweden,SE,162 87,47.015529,-68.1429749
1233,9 Sachs Hill,,Anchang,China,CN,,28.682892,115.858197
1234,4 Buhler Park,,Cahabón,Guatemala,GT,16012,15.6147646,-89.8052964
1235,57 Mccormick Street,,Rivne,Ukraine,UA,,50.6199,26.251617
1236,74 Elka Lane,,Mina Clavero,Argentina,AR,5889,-31.730594,-65.006098
1237,86 Northfield Alley,,Thị Trấn Trùng Khánh,Vietnam,VN,,22.8354437,106.5260001
1238,101 Canary Place,,Knjazevac,Serbia,RS,,43.5660829,22.2466754
1239,11028 Burning Wood Point,,San Juan,Costa Rica,CR,11301,9.955498,-84.078434
1240,383 Ridge Oak Park,,Nankun,China,CN,,19.318366,109.948275
1241,69 Meadow Vale Way,,Wuli,China,CN,,29.893672,110.346166
1242,79687 Golden Leaf Park,,Voronkov,Ukraine,UA,,50.2227764,30.903976
1243,42 Victoria Plaza,,Itapira,Brazil,BR,13970-000,-22.4363339,-46.8228622
1244,22488 Kensington Hill,,Comendador,Dominican Republic,DO,11205,18.4500491,-70.0007511
1245,33200 Thompson Alley,,Varser,Armenia,AM,,40.5529581,44.9105417
1246,4 Oriole Terrace,,Bodø,Norway,NO,8038,67.278155,14.4159346
1247,602 Center Court,,Meiyuan Xincun,China,CN,,31.2367474,121.5221244
1248,5101 Warner Court,,Kamenka,Russia,RU,692608,44.348809,133.9326833
1249,7804 Clove Parkway,,Huangliang,China,CN,,31.264698,110.839164
1250,729 Sherman Center,,Rogowo,Poland,PL,88-420,52.7251027,17.6532993
1251,5519 Eggendart Court,,Petřvald,Czech Republic,CZ,735 41,49.8309961,18.3894128
1252,22 Hoard Drive,,Gisiliba,Indonesia,ID,,-8.83126,121.05243
1253,7048 Nelson Court,,Kirkkonummi,Finland,FI,2480,60.0557978,24.4154907
1254,48 Maple Avenue,,Padangbai,Indonesia,ID,,-8.5298984,115.5074108
1255,3257 Jenna Terrace,,Belsk Duży,Poland,PL,05-622,51.8253953,20.8092134
1256,38 Butterfield Center,,Massy,France,FR,91304 CEDEX,48.732568,2.2889821
1257,4277 Barby Plaza,,Paris 03,France,FR,75151 CEDEX 03,43.4945737,5.8978018
1258,73 Sutteridge Lane,,Chaiyo,Thailand,TH,14140,14.7147473,100.4358552
1259,454 Dennis Park,,Mindupok,Philippines,PH,1135,6.0825,124.4327774
1260,465 Pawling Circle,,Boliney,Philippines,PH,2815,17.372649,120.770342
1261,25197 Jackson Center,,Xiaomenjia,China,CN,,37.617044,120.79935
1262,578 Eastwood Lane,,Buayan,Philippines,PH,9500,6.1167871,125.230372
1263,2 Meadow Vale Place,,Calasgasan,Philippines,PH,4508,14.13,122.967904
1264,32 Hanover Park,,Shelopugino,Russia,RU,673610,51.6455621,117.5825811
1265,42578 Pearson Lane,,Los Rastrojos,Venezuela,VE,,10.502717,-67.329117
1266,42 Mifflin Way,,Guohe,China,CN,,28.94074,113.447431
1267,92507 Gateway Drive,,Yimnón,Greece,GR,,38.4391281,23.8850944
1268,2298 Drewry Parkway,,Pizarrete,Dominican Republic,DO,10608,18.2726824,-70.2297697
1269,1 Golf View Court,,São Félix do Xingu,Brazil,BR,68380-000,-7.0179497,-52.3613378
1270,2 Orin Avenue,,Lukunor,Micronesia,FM,,5.5047283,153.8190084
1271,21403 Marcy Circle,,Sergiyev Posad,Russia,RU,141309,56.3103675,38.1016955
1272,3 Summer Ridge Park,,Býšť,Czech Republic,CZ,533 22,50.1283894,15.9182326
1273,96 Manufacturers Point,,Penamacor,Portugal,PT,6090-511,40.1686749,-7.1721914
1274,6958 Union Park,,Litvínov,Czech Republic,CZ,436 03,50.5965585,13.5929744
1275,02846 Aberg Lane,,Surulangun Rawas,Indonesia,ID,,-2.622461,102.754898
1276,96644 Jenifer Parkway,,Oelui,Indonesia,ID,,-6.3007596,106.8329412
1277,1050 Bartelt Avenue,,Tielou,China,CN,,32.904916,104.466646
1278,25 Browning Plaza,,Aguisan,Philippines,PH,4101,10.1765144,122.890937
1279,82 Judy Junction,,Saint-Quentin-en-Yvelines,France,FR,78061 CEDEX,48.7853082,2.072661
1280,49 Buhler Alley,,Mehona,Indonesia,ID,,-10.592804,121.8292161
1281,5736 Eggendart Parkway,,Halmstad,Sweden,SE,301 80,56.658933,12.87013
1282,576 Red Cloud Way,,Xike,China,CN,,31.228026,121.454211
1283,37 Bultman Street,,Savannah,United States,US,31410,32.0005346,-80.9760556
1284,2 Hayes Pass,,Shanxi,China,CN,,37.2425649,111.8568586
1285,48 Parkside Lane,,Bidbid,Oman,OM,,23.4069561,58.1252383
1286,9354 Bunker Hill Hill,,Montréal-Ouest,Canada,CA,H5B,45.5080397,-73.564543
1287,41 Starling Avenue,,Al Karmil,Palestinian Territory,PS,,31.42301,35.13278
1288,8797 Ridgeway Way,,Kacangan Lor,Indonesia,ID,,-6.9263243,110.084385
1289,67 Drewry Pass,,Nedašov,Czech Republic,CZ,763 32,49.1077842,18.0703677
1290,6787 Ridgeview Way,,Kotkot,Philippines,PH,6612,10.425,124.0005
1291,26 Green Center,,Alexandria,United States,US,22313,38.8,-77.05
1292,9 Golf View Place,,Novosineglazovskiy,Russia,RU,456505,55.0359955,61.3717568
1293,021 Hayes Place,,Nizhniy Kurkuzhin,Russia,RU,361515,43.7041519,43.3264539
1294,23 Russell Parkway,,Melville,Canada,CA,S7W,50.91671,-102.80099
1295,46795 Hanover Pass,,Liangnong,China,CN,,29.919421,121.085794
1296,87812 Chinook Hill,,Cortiçóis,Portugal,PT,2080-381,39.1392555,-8.6756761
1297,74 North Plaza,,Bankeryd,Sweden,SE,564 35,57.8633882,14.110065
1298,25596 Hanover Street,,Anchorage,United States,US,99599,61.1870241,-149.8822186
1299,36 Comanche Alley,,Pontang Tengah,Indonesia,ID,,-8.3464,113.6376
1300,7055 Anniversary Junction,,Aknoul,Morocco,MA,,34.6495513,-3.8629852
1301,778 Riverside Alley,,Chengguan,China,CN,,29.654838,91.140552
1302,11502 Utah Hill,,Kladno,Czech Republic,CZ,539 01,49.7724738,15.9822857
1303,4509 Jackson Parkway,,Mỏ Cày,Vietnam,VN,,10.1310658,106.3311197
1304,6 Merchant Plaza,,Lokea,Indonesia,ID,,-8.3278028,122.9796796
1305,4250 Ludington Hill,,Loutrós,Greece,GR,,40.8806112,26.045885
1306,14859 Leroy Hill,,Cachí,Argentina,AR,4417,-34.6507337,-58.4114593
1307,0548 Pennsylvania Plaza,,Guanting,China,CN,,35.87616,102.801062
1308,7 Blaine Way,,Alagoinhas,Brazil,BR,48000-000,-12.1339689,-38.4211223
1309,31 Eastlawn Street,,Ketanggi,Indonesia,ID,,-6.7279241,111.3396498
1310,4 Leroy Plaza,,Biyang,China,CN,,32.723975,113.327144
1311,0771 Barnett Terrace,,Khe Tre,Vietnam,VN,,16.1797497,107.7215969
1312,954 Gale Street,,Salaverry,Peru,PE,,-8.2141205,-78.9768999
1313,8 Little Fleur Parkway,,Suzuka,Japan,JP,669-1417,34.9556581,135.272163
1314,49627 Springview Pass,,Yamrat,Nigeria,NG,,10.1258199,9.8358611
1315,39 Loftsgordon Lane,,Huacheng,China,CN,,24.062988,115.625839
1316,1288 Ramsey Alley,,Tingzhou,China,CN,,30.274084,120.15507
1317,79488 Clemons Drive,,Calumpang,Philippines,PH,2307,14.5403397,121.0268687
1318,925 Monterey Park,,Bouaké,Ivory Coast,CI,,7.690466,-5.0390536
1319,976 Oneill Trail,,Kosamphi Nakhon,Thailand,TH,90190,16.6714164,99.2823264
1320,906 Debra Parkway,,Nantes,France,FR,44004 CEDEX 1,47.2174874,-1.5419505
1321,7896 Ludington Circle,,Cipeundeuy,Indonesia,ID,,-6.7299868,107.359399
1322,278 Jenna Court,,Bria,Central African Republic,CF,,6.5390358,21.9910008
1323,89 Mesta Court,,Cidahu,Indonesia,ID,,-6.7697476,106.7293611
1324,27 Grayhawk Trail,,Naguanagua,Venezuela,VE,,10.2683199,-68.0179418
1325,6 Colorado Point,,Umbultanjung,Indonesia,ID,,-6.2324516,105.8583873
1326,6 3rd Center,,Honolulu,United States,US,96835,21.3488387,-157.9435603
1327,4711 Fairfield Drive,,Wólka Pełkińska,Poland,PL,37-511,50.0932868,22.6333771
1328,9770 Thierer Place,,Kauswagan,Philippines,PH,9202,8.189424,124.086692
1329,8 Pierstorff Plaza,,Bolesławiec,Poland,PL,98-430,51.1981241,18.191303
1330,4 Donald Terrace,,Österbybruk,Sweden,SE,748 31,60.1960972,17.8961823
1331,561 Talisman Plaza,,Sosnówka,Poland,PL,58-564,50.8177069,15.7230035
1332,98436 Pine View Drive,,Biga,Philippines,PH,7031,29.8867765,-95.5491595
1333,93 Park Meadow Park,,Pleasant Point,New Zealand,NZ,7947,-44.284437,171.0279044
1334,67 Sycamore Court,,Zarasai,Lithuania,LT,32001,55.7304016,26.2456407
1335,27702 Elmside Alley,,Carice,Haiti,HT,,19.3789666,-71.831932
1336,66448 Portage Park,,Catac,Peru,PE,,-9.8015544,-77.4314703
1337,6525 Farwell Circle,,Kladanj,Bosnia and Herzegovina,BA,,44.2246967,18.6918556
1338,7 Fieldstone Street,,General Cabrera,Argentina,AR,5809,-32.817807,-63.877963
1339,237 Gulseth Crossing,,Pereiros,Portugal,PT,3040-723,40.1676522,-8.4138349
1340,8 Brentwood Crossing,,‘Ābūd,Palestinian Territory,PS,,32.016539,35.068807
1341,39195 Monterey Road,,Senneterre,Canada,CA,L0P,48.39302,-77.23951
1342,34594 Hazelcrest Avenue,,Markaz al Marīr,Yemen,YE,,13.98178,43.59547
1343,36498 Canary Pass,,Skien,Norway,NO,3736,59.1639426,9.6358001
1344,34 Red Cloud Drive,,Renhe,China,CN,,26.497765,101.738528
1345,2398 Russell Hill,,Pokrzywnica,Poland,PL,06-121,52.6254174,21.0235972
1346,2 Ilene Lane,,Weixin,China,CN,,27.8469,105.049027
1347,6 Cody Street,,Ghormach,Afghanistan,AF,,35.6495457,63.9113296
1348,7182 Summer Ridge Drive,,Thorpe,United Kingdom,GB,BD23,54.0521127,-1.9847194
1349,48 1st Court,,Toyota,Japan,JP,952-0317,37.9570614,138.3380852
1350,54 Dixon Street,,Baru,Indonesia,ID,,-2.8534379,108.2941031
1351,13 Melby Circle,,Nueva Italia,Paraguay,PY,,-25.6127554,-57.4655544
1352,818 Reindahl Place,,Chulakivka,Ukraine,UA,,46.3601437,32.3522621
1353,3 Northfield Circle,,Eskilstuna,Sweden,SE,633 47,59.397367,16.4816867
1354,52 Westridge Hill,,Huangma,China,CN,,36.009929,106.27349
1355,2612 Park Meadow Road,,Dingzigu,China,CN,,39.174484,117.164388
1356,58 Scott Circle,,Sogati,Indonesia,ID,,-7.3279,108.6833
1357,66 Daystar Pass,,Nová Role,Czech Republic,CZ,362 25,50.2709275,12.7842341
1358,820 Jenna Place,,Pantin,France,FR,93504 CEDEX,45.7608815,4.26286
1359,9 Pepper Wood Park,,Nangaroro,Indonesia,ID,,-8.7698185,121.3312882
1360,872 Jenifer Place,,Plérin,France,FR,22194 CEDEX,48.529165,-2.7586364
1361,42598 Clove Crossing,,Milano,Italy,IT,20147,45.4560254,9.1257661
1362,91831 Blaine Plaza,,Tocota,Peru,PE,,-15.6442505,-74.0784785
1363,22201 Brown Avenue,,Cartagena,Chile,CL,,-33.5482466,-71.6045745
1364,1 Becker Way,,Bodeh,Indonesia,ID,,-7.0277395,109.4616074
1365,96158 Union Lane,,Ḩalḩūl,Palestinian Territory,PS,,31.5798898,35.0999042
1366,41396 Lake View Avenue,,Vigan,Philippines,PH,2727,14.6032396,121.0095407
1367,970 John Wall Pass,,Penggakrajeng,Indonesia,ID,,-8.3242,115.618
1368,0 Northfield Terrace,,Tangxia,China,CN,,22.806457,114.073302
1369,7387 Amoth Road,,Sison,Philippines,PH,8404,14.609579,120.993122
1370,12801 Eastwood Park,,Cicurug,Indonesia,ID,,-6.8447302,108.2427764
1371,57 Jenna Point,,Lubbock,United States,US,79491,33.5465493,-101.85193
1372,60 Bartelt Road,,Mubi,Nigeria,NG,,10.2603809,13.2605763
1373,460 Shasta Trail,,Těšany,Czech Republic,CZ,664 54,49.039558,16.7700322
1374,1 Johnson Hill,,Humen,China,CN,,22.814704,113.672784
1375,88 Becker Hill,,Mundybash,Russia,RU,652900,53.2140133,87.2799316
1376,4128 Algoma Pass,,Täby,Sweden,SE,183 65,59.4527156,18.091186
1377,94 Shelley Court,,Élancourt,France,FR,78990,48.777799,1.9639754
1378,9400 Hoffman Plaza,,Kalinovskaya,Russia,RU,366128,57.7758077,40.9436341
1379,7 Bunker Hill Junction,,Longgang,China,CN,,22.720974,114.246899
1380,14 Farwell Alley,,Sanxi,China,CN,,37.2425649,111.8568586
1381,8319 Knutson Junction,,Mrozy,Poland,PL,05-320,52.1379258,21.828508
1382,73122 Menomonie Center,,Konstantinovo,Russia,RU,141340,56.5523691,38.0335558
1383,28 Homewood Junction,,Esperantina,Brazil,BR,77993-000,-5.2932525,-48.5187229
1384,20 Drewry Park,,Payabon,Philippines,PH,9209,9.8245916,122.9082413
1385,74847 Boyd Court,,Pomahan,Indonesia,ID,,-6.8217678,111.4067217
1386,6773 Carey Pass,,Minle,China,CN,,38.430793,100.812859
1387,0 Packers Way,,Minji,China,CN,,30.837881,114.13334
1388,7607 Kingsford Lane,,Kissónerga,Cyprus,CY,,34.8281946,32.4070834
1389,5 Merry Point,,Port-Gentil,Gabon,GA,,-0.7351026,8.7591311
1390,20812 Anthes Trail,,Chlumčany,Czech Republic,CZ,439 03,50.3348673,13.8437009
1391,19032 Glendale Plaza,,Huangtan,China,CN,,28.650072,121.261886
1392,02 Parkside Court,,Bessonovka,Russia,RU,442780,53.2770501,45.0300183
1393,78 Bay Terrace,,Gongqiao,China,CN,,25.242158,117.326355
1394,6516 Lakewood Gardens Street,,Szczerców,Poland,PL,97-420,51.3307349,19.1136024
1395,86 Sunbrook Crossing,,Kenamoen,Indonesia,ID,,-10.5411,123.2875
1396,07 Oriole Lane,,Maukaro,Indonesia,ID,,-8.6332229,121.5598345
1397,750 Dottie Place,,Tangyu,China,CN,,39.9929963,116.4690641
1398,8687 Lotheville Place,,Longhua,China,CN,,22.656408,114.019351
1399,93215 Hansons Parkway,,Juradó,Colombia,CO,276019,6.7911741,-77.5504779
1400,192 Carioca Road,,Yaizu,Japan,JP,426-0224,34.8643622,138.315371
1401,987 Ohio Avenue,,Shināş,Oman,OM,,24.7242467,56.4607919
1402,08745 Dawn Terrace,,Jönköping,Sweden,SE,551 21,57.7123057,14.3117654
1403,71 Hovde Avenue,,Chicago,United States,US,60657,41.9403795,-87.6531805
1404,6 Becker Pass,,Kasiyan,Indonesia,ID,,-8.3162866,113.4686802
1405,997 Thierer Way,,Ponyri Vtoryye,Russia,RU,452056,52.27994,36.22461
1406,66 Upham Court,,Vicuña Mackenna,Argentina,AR,6140,-33.9162938,-64.3897946
1407,2472 Jenifer Hill,,Jishan,China,CN,,35.604025,110.983333
1408,31 Manley Parkway,,Newtown,United Kingdom,GB,RG20,51.3684218,-1.3218754
1409,43074 Graceland Way,,Pszczyna,Poland,PL,43-200,49.9857805,18.9477092
1410,3 American Crossing,,Almeria,Spain,ES,4070,37.4852899,-2.2959788
1411,84 Anniversary Drive,,Beaufort,Luxembourg,LU,L-6380,49.8117449,6.2541216
1412,4654 Stuart Court,,Paris 15,France,FR,75729 CEDEX 15,48.8466523,2.2582125
1413,8 Schurz Lane,,Nong Muang Khai,Thailand,TH,12140,18.278467,100.179649
1414,1058 Kensington Way,,Yuecheng,China,CN,,29.988244,120.582633
1415,1916 Stang Road,,Munduk,Indonesia,ID,,-8.2666267,115.054678
1416,4 Sycamore Park,,Heishan,China,CN,,41.666028,122.1234429
1417,755 Graedel Plaza,,Huskvarna,Sweden,SE,561 50,57.7761739,14.2587374
1418,3778 Florence Point,,San Carlos,Peru,PE,,-5.9649082,-77.9467371
1419,970 Butterfield Circle,,Njivice,Croatia,HR,51512,45.159309,14.5440221
1420,478 Forest Dale Street,,Paratunka,Russia,RU,659642,52.96202,158.25723
